{
"type": "FeatureCollection",
"crs": { "type": "name", "properties": { "name": "urn:ogc:def:crs:OGC:1.3:CRS84" } },
                                                                                
"features": [
{ "type": "Feature", "properties": { "stid": "PADK", "synop_id": 704540, "name": "ADAKNAS", "state": "AK", "country": "US", "alt": 4 }, "geometry": { "type": "Point", "coordinates": [ -17665.0, 5188.0 ] } },
{ "type": "Feature", "properties": { "stid": "PAKH", "synop_id": 999999, "name": "AKHIOK", "state": "AK", "country": "US", "alt": 14 }, "geometry": { "type": "Point", "coordinates": [ -154.18, 56.93 ] } },
{ "type": "Feature", "properties": { "stid": "PAUT", "synop_id": 999999, "name": "AKUTAN", "state": "AK", "country": "US", "alt": 39 }, "geometry": { "type": "Point", "coordinates": [ -165.6, 54.15 ] } },
{ "type": "Feature", "properties": { "stid": "PAFM", "synop_id": 999999, "name": "AMBLER", "state": "AK", "country": "US", "alt": 88 }, "geometry": { "type": "Point", "coordinates": [ -157.85, 67.09 ] } },
{ "type": "Feature", "properties": { "stid": "PAKP", "synop_id": 999999, "name": "ANAKTUVUKPASS", "state": "AK", "country": "US", "alt": 642 }, "geometry": { "type": "Point", "coordinates": [ -151.72, 68.13 ] } },
{ "type": "Feature", "properties": { "stid": "PANC", "synop_id": 702730, "name": "ANCHORAGEINTL", "state": "AK", "country": "US", "alt": 38 }, "geometry": { "type": "Point", "coordinates": [ -150.02, 61.17 ] } },
{ "type": "Feature", "properties": { "stid": "PAFC", "synop_id": 999999, "name": "ANCHORAGE\/WFO", "state": "AK", "country": "US", "alt": 48 }, "geometry": { "type": "Point", "coordinates": [ -150.03, 61.17 ] } },
{ "type": "Feature", "properties": { "stid": "PAHG", "synop_id": 999999, "name": "ANCHORAG\/NIKISKI", "state": "AK", "country": "US", "alt": 74 }, "geometry": { "type": "Point", "coordinates": [ -151.35, 60.73 ] } },
{ "type": "Feature", "properties": { "stid": "PALH", "synop_id": 999999, "name": "ANCHORAGE\/LAKEH", "state": "AK", "country": "US", "alt": 22 }, "geometry": { "type": "Point", "coordinates": [ -149.97, 61.18 ] } },
{ "type": "Feature", "properties": { "stid": "PZAN", "synop_id": 999999, "name": "ANCHORAGE\/ARTCC", "state": "AK", "country": "US", "alt": 22 }, "geometry": { "type": "Point", "coordinates": [ -149.97, 61.17 ] } },
{ "type": "Feature", "properties": { "stid": "PAMR", "synop_id": 999999, "name": "ANCHORAGE\/MERRIL", "state": "AK", "country": "US", "alt": 41 }, "geometry": { "type": "Point", "coordinates": [ -149.85, 61.22 ] } },
{ "type": "Feature", "properties": { "stid": "PAGN", "synop_id": 999999, "name": "ANGOONSEAPLANE", "state": "AK", "country": "US", "alt": 2 }, "geometry": { "type": "Point", "coordinates": [ -134.58, 57.5 ] } },
{ "type": "Feature", "properties": { "stid": "PANI", "synop_id": 702320, "name": "ANIAK", "state": "AK", "country": "US", "alt": 26 }, "geometry": { "type": "Point", "coordinates": [ -159.53, 61.58 ] } },
{ "type": "Feature", "properties": { "stid": "PANT", "synop_id": 703980, "name": "ANNETTEISLAND", "state": "AK", "country": "US", "alt": 36 }, "geometry": { "type": "Point", "coordinates": [ -131.57, 55.03 ] } },
{ "type": "Feature", "properties": { "stid": "PANV", "synop_id": 999999, "name": "ANVIK", "state": "AK", "country": "US", "alt": 99 }, "geometry": { "type": "Point", "coordinates": [ -160.18, 62.65 ] } },
{ "type": "Feature", "properties": { "stid": "PARC", "synop_id": 999999, "name": "ARCTICVILLAGE", "state": "AK", "country": "US", "alt": 636 }, "geometry": { "type": "Point", "coordinates": [ -145.58, 68.12 ] } },
{ "type": "Feature", "properties": { "stid": "PATQ", "synop_id": 999999, "name": "ATQASUKBURNELL", "state": "AK", "country": "US", "alt": 29 }, "geometry": { "type": "Point", "coordinates": [ -157.43, 70.47 ] } },
{ "type": "Feature", "properties": { "stid": "PAAK", "synop_id": 999999, "name": "ATKA", "state": "AK", "country": "US", "alt": 17 }, "geometry": { "type": "Point", "coordinates": [ -174.2, 52.22 ] } },
{ "type": "Feature", "properties": { "stid": "PABR", "synop_id": 700260, "name": "BARROW", "state": "AK", "country": "US", "alt": 7 }, "geometry": { "type": "Point", "coordinates": [ -156.8, 71.28 ] } },
{ "type": "Feature", "properties": { "stid": "PABA", "synop_id": 700860, "name": "BARTERISLAND", "state": "AK", "country": "US", "alt": 2 }, "geometry": { "type": "Point", "coordinates": [ -143.58, 70.13 ] } },
{ "type": "Feature", "properties": { "stid": "PABE", "synop_id": 702190, "name": "BETHEL", "state": "AK", "country": "US", "alt": 41 }, "geometry": { "type": "Point", "coordinates": [ -161.85, 60.78 ] } },
{ "type": "Feature", "properties": { "stid": "PABC", "synop_id": 999999, "name": "BETHEL\/88D", "state": "AK", "country": "US", "alt": 49 }, "geometry": { "type": "Point", "coordinates": [ -161.88, 60.8 ] } },
{ "type": "Feature", "properties": { "stid": "PABT", "synop_id": 701740, "name": "BETTLES", "state": "AK", "country": "US", "alt": 195 }, "geometry": { "type": "Point", "coordinates": [ -151.52, 66.92 ] } },
{ "type": "Feature", "properties": { "stid": "PALV", "synop_id": 999999, "name": "BIGRIVERLAKES", "state": "AK", "country": "US", "alt": 12 }, "geometry": { "type": "Point", "coordinates": [ -152.3, 60.82 ] } },
{ "type": "Feature", "properties": { "stid": "PABV", "synop_id": 999999, "name": "BIRCHWOOD", "state": "AK", "country": "US", "alt": 29 }, "geometry": { "type": "Point", "coordinates": [ -149.52, 61.42 ] } },
{ "type": "Feature", "properties": { "stid": "PFKT", "synop_id": 999999, "name": "BREVIG_MISSION", "state": "AK", "country": "US", "alt": 9 }, "geometry": { "type": "Point", "coordinates": [ -166.47, 65.33 ] } },
{ "type": "Feature", "properties": { "stid": "PABL", "synop_id": 999999, "name": "BUCKLAND", "state": "AK", "country": "US", "alt": 7 }, "geometry": { "type": "Point", "coordinates": [ -161.15, 65.98 ] } },
{ "type": "Feature", "properties": { "stid": "PATW", "synop_id": 999999, "name": "CANTWELL", "state": "AK", "country": "US", "alt": 668 }, "geometry": { "type": "Point", "coordinates": [ -148.94, 63.38 ] } },
{ "type": "Feature", "properties": { "stid": "PALU", "synop_id": 701040, "name": "CAPELISBURNE", "state": "AK", "country": "US", "alt": 3 }, "geometry": { "type": "Point", "coordinates": [ -166.13, 68.88 ] } },
{ "type": "Feature", "properties": { "stid": "PAEH", "synop_id": 703050, "name": "CAPENEWENHAM", "state": "AK", "country": "US", "alt": 161 }, "geometry": { "type": "Point", "coordinates": [ -162.07, 58.65 ] } },
{ "type": "Feature", "properties": { "stid": "PACZ", "synop_id": 702120, "name": "CAPEROMANZOF", "state": "AK", "country": "US", "alt": 146 }, "geometry": { "type": "Point", "coordinates": [ -166.03, 61.78 ] } },
{ "type": "Feature", "properties": { "stid": "PARL", "synop_id": 999999, "name": "CENTRAL", "state": "AK", "country": "US", "alt": 284 }, "geometry": { "type": "Point", "coordinates": [ -144.78, 65.56 ] } },
{ "type": "Feature", "properties": { "stid": "PACE", "synop_id": 999999, "name": "CENTRAL", "state": "AK", "country": "US", "alt": 286 }, "geometry": { "type": "Point", "coordinates": [ -144.78, 65.56 ] } },
{ "type": "Feature", "properties": { "stid": "PALR", "synop_id": 999999, "name": "CHANDALARLAKE", "state": "AK", "country": "US", "alt": 585 }, "geometry": { "type": "Point", "coordinates": [ -148.47, 67.5 ] } },
{ "type": "Feature", "properties": { "stid": "PAVA", "synop_id": 999999, "name": "CHEVAK", "state": "AK", "country": "US", "alt": 23 }, "geometry": { "type": "Point", "coordinates": [ -165.6, 61.53 ] } },
{ "type": "Feature", "properties": { "stid": "PAJC", "synop_id": 999999, "name": "CHIGNIKBAY", "state": "AK", "country": "US", "alt": 15 }, "geometry": { "type": "Point", "coordinates": [ -158.37, 56.32 ] } },
{ "type": "Feature", "properties": { "stid": "PACR", "synop_id": 999999, "name": "CIRCLE\/PAFCRFC", "state": "AK", "country": "US", "alt": 182 }, "geometry": { "type": "Point", "coordinates": [ -144.07, 65.83 ] } },
{ "type": "Feature", "properties": { "stid": "PFCL", "synop_id": 999999, "name": "CLARKSPOINT", "state": "AK", "country": "US", "alt": 24 }, "geometry": { "type": "Point", "coordinates": [ -158.53, 58.83 ] } },
{ "type": "Feature", "properties": { "stid": "PACD", "synop_id": 703160, "name": "COLDBAY", "state": "AK", "country": "US", "alt": 30 }, "geometry": { "type": "Point", "coordinates": [ -162.72, 55.2 ] } },
{ "type": "Feature", "properties": { "stid": "PACV", "synop_id": 702960, "name": "CORDOVA", "state": "AK", "country": "US", "alt": 12 }, "geometry": { "type": "Point", "coordinates": [ -145.5, 60.5 ] } },
{ "type": "Feature", "properties": { "stid": "PASC", "synop_id": 999999, "name": "DEADHORSE", "state": "AK", "country": "US", "alt": 15 }, "geometry": { "type": "Point", "coordinates": [ -148.47, 70.2 ] } },
{ "type": "Feature", "properties": { "stid": "PAAD", "synop_id": 999999, "name": "DEADHROSE\/THOMSO", "state": "AK", "country": "US", "alt": 17 }, "geometry": { "type": "Point", "coordinates": [ -146.28, 70.13 ] } },
{ "type": "Feature", "properties": { "stid": "PADE", "synop_id": 999999, "name": "DEERING", "state": "AK", "country": "US", "alt": 5 }, "geometry": { "type": "Point", "coordinates": [ -162.77, 66.06 ] } },
{ "type": "Feature", "properties": { "stid": "PABI", "synop_id": 702670, "name": "DELTAJUNCTION", "state": "AK", "country": "US", "alt": 386 }, "geometry": { "type": "Point", "coordinates": [ -145.72, 64.0 ] } },
{ "type": "Feature", "properties": { "stid": "PADL", "synop_id": 703210, "name": "DILLINGHAM", "state": "AK", "country": "US", "alt": 26 }, "geometry": { "type": "Point", "coordinates": [ -158.52, 59.05 ] } },
{ "type": "Feature", "properties": { "stid": "PAEG", "synop_id": 999999, "name": "EAGLE", "state": "AK", "country": "US", "alt": 268 }, "geometry": { "type": "Point", "coordinates": [ -141.15, 64.78 ] } },
{ "type": "Feature", "properties": { "stid": "PASY", "synop_id": 704140, "name": "EARECKSON\/SHEMYA", "state": "AK", "country": "US", "alt": 31 }, "geometry": { "type": "Point", "coordinates": [ 174.12, 52.72 ] } },
{ "type": "Feature", "properties": { "stid": "PAII", "synop_id": 999999, "name": "EGEGIK", "state": "AK", "country": "US", "alt": 30 }, "geometry": { "type": "Point", "coordinates": [ -157.38, 58.18 ] } },
{ "type": "Feature", "properties": { "stid": "PAEI", "synop_id": 702650, "name": "EIELSONAFB", "state": "AK", "country": "US", "alt": 167 }, "geometry": { "type": "Point", "coordinates": [ -147.1, 64.67 ] } },
{ "type": "Feature", "properties": { "stid": "PAEL", "synop_id": 999999, "name": "ELFINCOVE", "state": "AK", "country": "US", "alt": 3 }, "geometry": { "type": "Point", "coordinates": [ -136.35, 58.2 ] } },
{ "type": "Feature", "properties": { "stid": "PFEL", "synop_id": 999999, "name": "ELIMAPRT", "state": "AK", "country": "US", "alt": 49 }, "geometry": { "type": "Point", "coordinates": [ -162.27, 64.62 ] } },
{ "type": "Feature", "properties": { "stid": "PAED", "synop_id": 702720, "name": "ELMENDORFAFB", "state": "AK", "country": "US", "alt": 59 }, "geometry": { "type": "Point", "coordinates": [ -149.8, 61.25 ] } },
{ "type": "Feature", "properties": { "stid": "PAEM", "synop_id": 999999, "name": "EMMONAK", "state": "AK", "country": "US", "alt": 3 }, "geometry": { "type": "Point", "coordinates": [ -164.52, 62.77 ] } },
{ "type": "Feature", "properties": { "stid": "PAZK", "synop_id": 999999, "name": "EUREKA", "state": "AK", "country": "US", "alt": 1003 }, "geometry": { "type": "Point", "coordinates": [ -147.16, 61.93 ] } },
{ "type": "Feature", "properties": { "stid": "PAFA", "synop_id": 702610, "name": "FAIRBANKS", "state": "AK", "country": "US", "alt": 132 }, "geometry": { "type": "Point", "coordinates": [ -147.88, 64.8 ] } },
{ "type": "Feature", "properties": { "stid": "PAFG", "synop_id": 999999, "name": "FAIRBANKS\/WFO", "state": "AK", "country": "US", "alt": 140 }, "geometry": { "type": "Point", "coordinates": [ -147.88, 64.8 ] } },
{ "type": "Feature", "properties": { "stid": "PAKF", "synop_id": 999999, "name": "FALSEPASS", "state": "AK", "country": "US", "alt": 6 }, "geometry": { "type": "Point", "coordinates": [ -163.41, 54.85 ] } },
{ "type": "Feature", "properties": { "stid": "PAPD", "synop_id": 999999, "name": "FRBNKS\/PEDRODOM", "state": "AK", "country": "US", "alt": 790 }, "geometry": { "type": "Point", "coordinates": [ -147.5, 65.03 ] } },
{ "type": "Feature", "properties": { "stid": "PAFK", "synop_id": 702480, "name": "FAREWELLLAKE", "state": "AK", "country": "US", "alt": 321 }, "geometry": { "type": "Point", "coordinates": [ -153.6, 62.53 ] } },
{ "type": "Feature", "properties": { "stid": "PAFR", "synop_id": 702700, "name": "FORTRICHARDSON", "state": "AK", "country": "US", "alt": 115 }, "geometry": { "type": "Point", "coordinates": [ -149.65, 61.27 ] } },
{ "type": "Feature", "properties": { "stid": "PAFB", "synop_id": 999999, "name": "FORTWAINWRIGHT", "state": "AK", "country": "US", "alt": 137 }, "geometry": { "type": "Point", "coordinates": [ -147.62, 64.83 ] } },
{ "type": "Feature", "properties": { "stid": "PAFY", "synop_id": 701940, "name": "FORTYUKON", "state": "AK", "country": "US", "alt": 131 }, "geometry": { "type": "Point", "coordinates": [ -145.27, 66.56 ] } },
{ "type": "Feature", "properties": { "stid": "PFYU", "synop_id": 999999, "name": "FORTYUKON", "state": "AK", "country": "US", "alt": 131 }, "geometry": { "type": "Point", "coordinates": [ -145.27, 66.56 ] } },
{ "type": "Feature", "properties": { "stid": "PAFN", "synop_id": 999999, "name": "FUNTERBAY", "state": "AK", "country": "US", "alt": 9 }, "geometry": { "type": "Point", "coordinates": [ -134.9, 58.25 ] } },
{ "type": "Feature", "properties": { "stid": "PAGB", "synop_id": 999999, "name": "GALBRAITHLAKE", "state": "AK", "country": "US", "alt": 811 }, "geometry": { "type": "Point", "coordinates": [ -149.47, 68.48 ] } },
{ "type": "Feature", "properties": { "stid": "PAGA", "synop_id": 702220, "name": "GALENA", "state": "AK", "country": "US", "alt": 46 }, "geometry": { "type": "Point", "coordinates": [ -156.93, 64.73 ] } },
{ "type": "Feature", "properties": { "stid": "PAGM", "synop_id": 702040, "name": "GAMBELL", "state": "AK", "country": "US", "alt": 8 }, "geometry": { "type": "Point", "coordinates": [ -171.73, 63.77 ] } },
{ "type": "Feature", "properties": { "stid": "PAGL", "synop_id": 999999, "name": "GOLOVIN", "state": "AK", "country": "US", "alt": 8 }, "geometry": { "type": "Point", "coordinates": [ -163.03, 64.55 ] } },
{ "type": "Feature", "properties": { "stid": "PAGK", "synop_id": 702710, "name": "GULKANA", "state": "AK", "country": "US", "alt": 481 }, "geometry": { "type": "Point", "coordinates": [ -145.44, 62.15 ] } },
{ "type": "Feature", "properties": { "stid": "PAGS", "synop_id": 703670, "name": "GUSTAVUS", "state": "AK", "country": "US", "alt": 9 }, "geometry": { "type": "Point", "coordinates": [ -135.72, 58.42 ] } },
{ "type": "Feature", "properties": { "stid": "PAHN", "synop_id": 999999, "name": "HAINES", "state": "AK", "country": "US", "alt": 5 }, "geometry": { "type": "Point", "coordinates": [ -135.52, 59.25 ] } },
{ "type": "Feature", "properties": { "stid": "PAHZ", "synop_id": 999999, "name": "HAYESRIVER", "state": "AK", "country": "US", "alt": 305 }, "geometry": { "type": "Point", "coordinates": [ -152.08, 61.98 ] } },
{ "type": "Feature", "properties": { "stid": "PAHV", "synop_id": 999999, "name": "HEALY", "state": "AK", "country": "US", "alt": 396 }, "geometry": { "type": "Point", "coordinates": [ -149.0, 63.83 ] } },
{ "type": "Feature", "properties": { "stid": "PAHC", "synop_id": 999999, "name": "HOLYCROSS", "state": "AK", "country": "US", "alt": 21 }, "geometry": { "type": "Point", "coordinates": [ -159.78, 62.18 ] } },
{ "type": "Feature", "properties": { "stid": "PAHO", "synop_id": 703410, "name": "HOMER", "state": "AK", "country": "US", "alt": 28 }, "geometry": { "type": "Point", "coordinates": [ -151.5, 59.63 ] } },
{ "type": "Feature", "properties": { "stid": "PAOH", "synop_id": 999999, "name": "HOONAH", "state": "AK", "country": "US", "alt": 9 }, "geometry": { "type": "Point", "coordinates": [ -135.44, 58.1 ] } },
{ "type": "Feature", "properties": { "stid": "PAHP", "synop_id": 999999, "name": "HOOPERBAY", "state": "AK", "country": "US", "alt": 5 }, "geometry": { "type": "Point", "coordinates": [ -166.15, 61.53 ] } },
{ "type": "Feature", "properties": { "stid": "PAHS", "synop_id": 999999, "name": "HUSLIA", "state": "AK", "country": "US", "alt": 55 }, "geometry": { "type": "Point", "coordinates": [ -156.38, 65.7 ] } },
{ "type": "Feature", "properties": { "stid": "PAHL", "synop_id": 999999, "name": "HUSLIA", "state": "AK", "country": "US", "alt": 65 }, "geometry": { "type": "Point", "coordinates": [ -156.35, 65.7 ] } },
{ "type": "Feature", "properties": { "stid": "PAHY", "synop_id": 999999, "name": "HYDABURG", "state": "AK", "country": "US", "alt": 1 }, "geometry": { "type": "Point", "coordinates": [ -132.83, 55.2 ] } },
{ "type": "Feature", "properties": { "stid": "PAIG", "synop_id": 999999, "name": "IGIUGIG", "state": "AK", "country": "US", "alt": 28 }, "geometry": { "type": "Point", "coordinates": [ -155.9, 59.32 ] } },
{ "type": "Feature", "properties": { "stid": "PAIL", "synop_id": 703400, "name": "ILIAMNA", "state": "AK", "country": "US", "alt": 49 }, "geometry": { "type": "Point", "coordinates": [ -154.91, 59.75 ] } },
{ "type": "Feature", "properties": { "stid": "PAIM", "synop_id": 701730, "name": "INDIANMOUNTAIN", "state": "AK", "country": "US", "alt": 389 }, "geometry": { "type": "Point", "coordinates": [ -153.69, 66.0 ] } },
{ "type": "Feature", "properties": { "stid": "PAJN", "synop_id": 703810, "name": "JUNEAU", "state": "AK", "country": "US", "alt": 5 }, "geometry": { "type": "Point", "coordinates": [ -134.58, 58.37 ] } },
{ "type": "Feature", "properties": { "stid": "PAJK", "synop_id": 999999, "name": "JUNEAU\/WFO", "state": "AK", "country": "US", "alt": 7 }, "geometry": { "type": "Point", "coordinates": [ -134.57, 58.37 ] } },
{ "type": "Feature", "properties": { "stid": "PAFE", "synop_id": 999999, "name": "KAKE", "state": "AK", "country": "US", "alt": 9 }, "geometry": { "type": "Point", "coordinates": [ -133.91, 56.97 ] } },
{ "type": "Feature", "properties": { "stid": "PALG", "synop_id": 999999, "name": "KALSKAG", "state": "AK", "country": "US", "alt": 17 }, "geometry": { "type": "Point", "coordinates": [ -160.33, 61.53 ] } },
{ "type": "Feature", "properties": { "stid": "PAKV", "synop_id": 999999, "name": "KALTAG", "state": "AK", "country": "US", "alt": 61 }, "geometry": { "type": "Point", "coordinates": [ -158.75, 64.33 ] } },
{ "type": "Feature", "properties": { "stid": "PAEN", "synop_id": 702590, "name": "KENAI", "state": "AK", "country": "US", "alt": 27 }, "geometry": { "type": "Point", "coordinates": [ -151.25, 60.57 ] } },
{ "type": "Feature", "properties": { "stid": "PAKT", "synop_id": 703950, "name": "KETCHIKAN", "state": "AK", "country": "US", "alt": 28 }, "geometry": { "type": "Point", "coordinates": [ -131.69, 55.35 ] } },
{ "type": "Feature", "properties": { "stid": "PAIK", "synop_id": 999999, "name": "KIANA", "state": "AK", "country": "US", "alt": 51 }, "geometry": { "type": "Point", "coordinates": [ -160.43, 66.98 ] } },
{ "type": "Feature", "properties": { "stid": "PAVC", "synop_id": 999999, "name": "KINGCOVE", "state": "AK", "country": "US", "alt": 47 }, "geometry": { "type": "Point", "coordinates": [ -162.27, 55.12 ] } },
{ "type": "Feature", "properties": { "stid": "PAKN", "synop_id": 703260, "name": "KINGSALMON", "state": "AK", "country": "US", "alt": 17 }, "geometry": { "type": "Point", "coordinates": [ -156.65, 58.68 ] } },
{ "type": "Feature", "properties": { "stid": "PAKC", "synop_id": 999999, "name": "KINGSALMON\/88D", "state": "AK", "country": "US", "alt": 19 }, "geometry": { "type": "Point", "coordinates": [ -156.63, 58.68 ] } },
{ "type": "Feature", "properties": { "stid": "KQRC", "synop_id": 999999, "name": "KINGSALMONAFS", "state": "AK", "country": "US", "alt": 15 }, "geometry": { "type": "Point", "coordinates": [ -156.63, 58.68 ] } },
{ "type": "Feature", "properties": { "stid": "PAKI", "synop_id": 999999, "name": "KIPNUK", "state": "AK", "country": "US", "alt": 4 }, "geometry": { "type": "Point", "coordinates": [ -164.03, 59.93 ] } },
{ "type": "Feature", "properties": { "stid": "PAVL", "synop_id": 999999, "name": "KIVALINA", "state": "AK", "country": "US", "alt": 3 }, "geometry": { "type": "Point", "coordinates": [ -164.55, 67.73 ] } },
{ "type": "Feature", "properties": { "stid": "PAKW", "synop_id": 999999, "name": "KLAWOCK", "state": "AK", "country": "US", "alt": 15 }, "geometry": { "type": "Point", "coordinates": [ -133.07, 55.58 ] } },
{ "type": "Feature", "properties": { "stid": "PADQ", "synop_id": 703500, "name": "KODIAK", "state": "AK", "country": "US", "alt": 34 }, "geometry": { "type": "Point", "coordinates": [ -152.5, 57.75 ] } },
{ "type": "Feature", "properties": { "stid": "PAKD", "synop_id": 999999, "name": "KODIAK", "state": "AK", "country": "US", "alt": 42 }, "geometry": { "type": "Point", "coordinates": [ -152.37, 57.8 ] } },
{ "type": "Feature", "properties": { "stid": "PAJZ", "synop_id": 999999, "name": "KOLIGANEK", "state": "AK", "country": "US", "alt": 82 }, "geometry": { "type": "Point", "coordinates": [ -157.27, 59.73 ] } },
{ "type": "Feature", "properties": { "stid": "PAOT", "synop_id": 701330, "name": "KOTZEBUE", "state": "AK", "country": "US", "alt": 3 }, "geometry": { "type": "Point", "coordinates": [ -162.58, 66.87 ] } },
{ "type": "Feature", "properties": { "stid": "PAKK", "synop_id": 999999, "name": "KOYUK", "state": "AK", "country": "US", "alt": 47 }, "geometry": { "type": "Point", "coordinates": [ -161.15, 64.93 ] } },
{ "type": "Feature", "properties": { "stid": "PAKU", "synop_id": 999999, "name": "KUPARUK", "state": "AK", "country": "US", "alt": 2 }, "geometry": { "type": "Point", "coordinates": [ -149.58, 70.31 ] } },
{ "type": "Feature", "properties": { "stid": "PFKW", "synop_id": 999999, "name": "KWETHLUK", "state": "AK", "country": "US", "alt": 8 }, "geometry": { "type": "Point", "coordinates": [ -161.45, 60.78 ] } },
{ "type": "Feature", "properties": { "stid": "PAML", "synop_id": 999999, "name": "MANLEYHOTSPRIN", "state": "AK", "country": "US", "alt": 81 }, "geometry": { "type": "Point", "coordinates": [ -150.65, 65.0 ] } },
{ "type": "Feature", "properties": { "stid": "PAMB", "synop_id": 999999, "name": "MANOKOTAK", "state": "AK", "country": "US", "alt": 16 }, "geometry": { "type": "Point", "coordinates": [ -159.05, 58.98 ] } },
{ "type": "Feature", "properties": { "stid": "PADM", "synop_id": 999999, "name": "MARSHALL", "state": "AK", "country": "US", "alt": 31 }, "geometry": { "type": "Point", "coordinates": [ -162.03, 61.87 ] } },
{ "type": "Feature", "properties": { "stid": "PAMX", "synop_id": 999999, "name": "MCCARTHY", "state": "AK", "country": "US", "alt": 455 }, "geometry": { "type": "Point", "coordinates": [ -142.91, 61.43 ] } },
{ "type": "Feature", "properties": { "stid": "PAMC", "synop_id": 702310, "name": "MCGRATH", "state": "AK", "country": "US", "alt": 103 }, "geometry": { "type": "Point", "coordinates": [ -155.62, 62.97 ] } },
{ "type": "Feature", "properties": { "stid": "PAIN", "synop_id": 999999, "name": "MCKINLEYPARK", "state": "AK", "country": "US", "alt": 524 }, "geometry": { "type": "Point", "coordinates": [ -148.91, 63.73 ] } },
{ "type": "Feature", "properties": { "stid": "PAMY", "synop_id": 999999, "name": "MEKORYUK", "state": "AK", "country": "US", "alt": 13 }, "geometry": { "type": "Point", "coordinates": [ -166.27, 60.37 ] } },
{ "type": "Feature", "properties": { "stid": "PAMM", "synop_id": 999999, "name": "METLAKATLA", "state": "AK", "country": "US", "alt": 1 }, "geometry": { "type": "Point", "coordinates": [ -131.58, 55.13 ] } },
{ "type": "Feature", "properties": { "stid": "PAMD", "synop_id": 703430, "name": "MIDDLETONISLAND", "state": "AK", "country": "US", "alt": 14 }, "geometry": { "type": "Point", "coordinates": [ -146.3, 59.43 ] } },
{ "type": "Feature", "properties": { "stid": "PAIH", "synop_id": 999999, "name": "MIDDLETONIS88D", "state": "AK", "country": "US", "alt": 20 }, "geometry": { "type": "Point", "coordinates": [ -146.3, 59.47 ] } },
{ "type": "Feature", "properties": { "stid": "PAMH", "synop_id": 702460, "name": "MINCHUMINA", "state": "AK", "country": "US", "alt": 214 }, "geometry": { "type": "Point", "coordinates": [ -152.32, 63.9 ] } },
{ "type": "Feature", "properties": { "stid": "PAMO", "synop_id": 999999, "name": "MOUNTAINVILLAGE", "state": "AK", "country": "US", "alt": 103 }, "geometry": { "type": "Point", "coordinates": [ -163.68, 62.1 ] } },
{ "type": "Feature", "properties": { "stid": "PABN", "synop_id": 999999, "name": "NABESNA", "state": "AK", "country": "US", "alt": 880 }, "geometry": { "type": "Point", "coordinates": [ -143.0, 62.4 ] } },
{ "type": "Feature", "properties": { "stid": "PAOU", "synop_id": 999999, "name": "NELSONLAGOON", "state": "AK", "country": "US", "alt": 4 }, "geometry": { "type": "Point", "coordinates": [ -161.16, 56.0 ] } },
{ "type": "Feature", "properties": { "stid": "PANN", "synop_id": 702600, "name": "NENANA", "state": "AK", "country": "US", "alt": 110 }, "geometry": { "type": "Point", "coordinates": [ -149.08, 64.55 ] } },
{ "type": "Feature", "properties": { "stid": "PANW", "synop_id": 999999, "name": "NEWSTUYAHOK", "state": "AK", "country": "US", "alt": 92 }, "geometry": { "type": "Point", "coordinates": [ -157.37, 59.45 ] } },
{ "type": "Feature", "properties": { "stid": "PAFS", "synop_id": 999999, "name": "NIKOLAI", "state": "AK", "country": "US", "alt": 126 }, "geometry": { "type": "Point", "coordinates": [ -154.35, 63.02 ] } },
{ "type": "Feature", "properties": { "stid": "PAOM", "synop_id": 702000, "name": "NOME", "state": "AK", "country": "US", "alt": 11 }, "geometry": { "type": "Point", "coordinates": [ -165.43, 64.5 ] } },
{ "type": "Feature", "properties": { "stid": "PAEC", "synop_id": 999999, "name": "CHULITNA", "state": "AK", "country": "US", "alt": 381 }, "geometry": { "type": "Point", "coordinates": [ -149.83, 62.88 ] } },
{ "type": "Feature", "properties": { "stid": "PAOR", "synop_id": 702910, "name": "NORTHWAY", "state": "AK", "country": "US", "alt": 523 }, "geometry": { "type": "Point", "coordinates": [ -141.93, 62.97 ] } },
{ "type": "Feature", "properties": { "stid": "PAWN", "synop_id": 999999, "name": "NOATAK", "state": "AK", "country": "US", "alt": 30 }, "geometry": { "type": "Point", "coordinates": [ -162.97, 67.56 ] } },
{ "type": "Feature", "properties": { "stid": "PFNO", "synop_id": 999999, "name": "NOORVIK", "state": "AK", "country": "US", "alt": 17 }, "geometry": { "type": "Point", "coordinates": [ -161.02, 66.81 ] } },
{ "type": "Feature", "properties": { "stid": "PAQT", "synop_id": 999999, "name": "NUIQSUT", "state": "AK", "country": "US", "alt": 12 }, "geometry": { "type": "Point", "coordinates": [ -151.0, 70.22 ] } },
{ "type": "Feature", "properties": { "stid": "PALP", "synop_id": 999999, "name": "NUIQSUTVILLAGE", "state": "AK", "country": "US", "alt": 5 }, "geometry": { "type": "Point", "coordinates": [ -150.93, 70.33 ] } },
{ "type": "Feature", "properties": { "stid": "PPIT", "synop_id": 999999, "name": "NUNAPITCHUK", "state": "AK", "country": "US", "alt": 4 }, "geometry": { "type": "Point", "coordinates": [ -162.43, 60.9 ] } },
{ "type": "Feature", "properties": { "stid": "POLI", "synop_id": 700630, "name": "OLIKTOKPOINT", "state": "AK", "country": "US", "alt": 5 }, "geometry": { "type": "Point", "coordinates": [ -149.88, 70.5 ] } },
{ "type": "Feature", "properties": { "stid": "PAAQ", "synop_id": 702740, "name": "PALMER", "state": "AK", "country": "US", "alt": 73 }, "geometry": { "type": "Point", "coordinates": [ -149.08, 61.6 ] } },
{ "type": "Feature", "properties": { "stid": "PAXK", "synop_id": 999999, "name": "PAXSON", "state": "AK", "country": "US", "alt": 809 }, "geometry": { "type": "Point", "coordinates": [ -145.5, 63.03 ] } },
{ "type": "Feature", "properties": { "stid": "PAPG", "synop_id": 703860, "name": "PETERSBURG", "state": "AK", "country": "US", "alt": 15 }, "geometry": { "type": "Point", "coordinates": [ -132.97, 56.82 ] } },
{ "type": "Feature", "properties": { "stid": "PAPN", "synop_id": 999999, "name": "PILOTPOINT", "state": "AK", "country": "US", "alt": 18 }, "geometry": { "type": "Point", "coordinates": [ -157.57, 57.58 ] } },
{ "type": "Feature", "properties": { "stid": "PAPM", "synop_id": 999999, "name": "PLATINUM", "state": "AK", "country": "US", "alt": 5 }, "geometry": { "type": "Point", "coordinates": [ -161.82, 59.02 ] } },
{ "type": "Feature", "properties": { "stid": "PAPO", "synop_id": 999999, "name": "POINTHOPE", "state": "AK", "country": "US", "alt": 6 }, "geometry": { "type": "Point", "coordinates": [ -166.8, 68.34 ] } },
{ "type": "Feature", "properties": { "stid": "PPIZ", "synop_id": 701210, "name": "POINTLAY", "state": "AK", "country": "US", "alt": 8 }, "geometry": { "type": "Point", "coordinates": [ -163.0, 69.73 ] } },
{ "type": "Feature", "properties": { "stid": "PAAP", "synop_id": 999999, "name": "PORTALEXANDER", "state": "AK", "country": "US", "alt": 6 }, "geometry": { "type": "Point", "coordinates": [ -134.65, 56.23 ] } },
{ "type": "Feature", "properties": { "stid": "PALJ", "synop_id": 999999, "name": "PORTALSWORTH", "state": "AK", "country": "US", "alt": 81 }, "geometry": { "type": "Point", "coordinates": [ -154.3, 60.2 ] } },
{ "type": "Feature", "properties": { "stid": "PAPC", "synop_id": 701190, "name": "PORTCLARENCE", "state": "AK", "country": "US", "alt": 3 }, "geometry": { "type": "Point", "coordinates": [ -166.85, 65.25 ] } },
{ "type": "Feature", "properties": { "stid": "PAPH", "synop_id": 703330, "name": "PORTHEIDEN", "state": "AK", "country": "US", "alt": 29 }, "geometry": { "type": "Point", "coordinates": [ -158.62, 56.95 ] } },
{ "type": "Feature", "properties": { "stid": "PATO", "synop_id": 999999, "name": "PORTAGEGLACIER", "state": "AK", "country": "US", "alt": 31 }, "geometry": { "type": "Point", "coordinates": [ -148.85, 60.78 ] } },
{ "type": "Feature", "properties": { "stid": "PAPR", "synop_id": 999999, "name": "PROSPECTCREEK", "state": "AK", "country": "US", "alt": 335 }, "geometry": { "type": "Point", "coordinates": [ -150.65, 66.81 ] } },
{ "type": "Feature", "properties": { "stid": "PAUD", "synop_id": 999999, "name": "PRUDHOEBAY", "state": "AK", "country": "US", "alt": 12 }, "geometry": { "type": "Point", "coordinates": [ -148.33, 70.25 ] } },
{ "type": "Feature", "properties": { "stid": "PAPT", "synop_id": 702490, "name": "PUNTILLALAKE", "state": "AK", "country": "US", "alt": 558 }, "geometry": { "type": "Point", "coordinates": [ -152.72, 62.1 ] } },
{ "type": "Feature", "properties": { "stid": "PAQH", "synop_id": 999999, "name": "QUINHAGAK", "state": "AK", "country": "US", "alt": 12 }, "geometry": { "type": "Point", "coordinates": [ -161.9, 59.75 ] } },
{ "type": "Feature", "properties": { "stid": "PARD", "synop_id": 999999, "name": "REGDOG", "state": "AK", "country": "US", "alt": 297 }, "geometry": { "type": "Point", "coordinates": [ -162.9, 68.03 ] } },
{ "type": "Feature", "properties": { "stid": "PADG", "synop_id": 999999, "name": "REGDOG", "state": "AK", "country": "US", "alt": 297 }, "geometry": { "type": "Point", "coordinates": [ -162.9, 68.03 ] } },
{ "type": "Feature", "properties": { "stid": "PARY", "synop_id": 999999, "name": "RUBY", "state": "AK", "country": "US", "alt": 199 }, "geometry": { "type": "Point", "coordinates": [ -155.47, 64.73 ] } },
{ "type": "Feature", "properties": { "stid": "PARS", "synop_id": 999999, "name": "RUSSIANMISSION", "state": "AK", "country": "US", "alt": 16 }, "geometry": { "type": "Point", "coordinates": [ -161.32, 61.77 ] } },
{ "type": "Feature", "properties": { "stid": "PASM", "synop_id": 999999, "name": "SAINTMARYS", "state": "AK", "country": "US", "alt": 92 }, "geometry": { "type": "Point", "coordinates": [ -163.3, 62.07 ] } },
{ "type": "Feature", "properties": { "stid": "PASD", "synop_id": 999999, "name": "SANDPOINT", "state": "AK", "country": "US", "alt": 7 }, "geometry": { "type": "Point", "coordinates": [ -160.5, 55.33 ] } },
{ "type": "Feature", "properties": { "stid": "PASA", "synop_id": 999999, "name": "SAVOONGA", "state": "AK", "country": "US", "alt": 16 }, "geometry": { "type": "Point", "coordinates": [ -170.5, 63.68 ] } },
{ "type": "Feature", "properties": { "stid": "PACM", "synop_id": 999999, "name": "SCAMMONBAY", "state": "AK", "country": "US", "alt": 4 }, "geometry": { "type": "Point", "coordinates": [ -165.57, 61.85 ] } },
{ "type": "Feature", "properties": { "stid": "PASK", "synop_id": 999999, "name": "SELAWIK", "state": "AK", "country": "US", "alt": 8 }, "geometry": { "type": "Point", "coordinates": [ -160.0, 66.59 ] } },
{ "type": "Feature", "properties": { "stid": "PASO", "synop_id": 999999, "name": "SELDOVIA", "state": "AK", "country": "US", "alt": 9 }, "geometry": { "type": "Point", "coordinates": [ -151.69, 59.45 ] } },
{ "type": "Feature", "properties": { "stid": "PAWD", "synop_id": 702770, "name": "SEWARD", "state": "AK", "country": "US", "alt": 23 }, "geometry": { "type": "Point", "coordinates": [ -149.41, 60.12 ] } },
{ "type": "Feature", "properties": { "stid": "PAHX", "synop_id": 999999, "name": "SHAGELUK", "state": "AK", "country": "US", "alt": 24 }, "geometry": { "type": "Point", "coordinates": [ -159.57, 62.7 ] } },
{ "type": "Feature", "properties": { "stid": "PFSH", "synop_id": 999999, "name": "SHAKTOOLIK", "state": "AK", "country": "US", "alt": 7 }, "geometry": { "type": "Point", "coordinates": [ -161.22, 64.37 ] } },
{ "type": "Feature", "properties": { "stid": "PASH", "synop_id": 999999, "name": "SHISHMAREF", "state": "AK", "country": "US", "alt": 2 }, "geometry": { "type": "Point", "coordinates": [ -166.08, 66.27 ] } },
{ "type": "Feature", "properties": { "stid": "PAGH", "synop_id": 999999, "name": "SHUNGNAK", "state": "AK", "country": "US", "alt": 60 }, "geometry": { "type": "Point", "coordinates": [ -157.16, 66.88 ] } },
{ "type": "Feature", "properties": { "stid": "PASI", "synop_id": 703710, "name": "SITKA", "state": "AK", "country": "US", "alt": 5 }, "geometry": { "type": "Point", "coordinates": [ -135.35, 57.07 ] } },
{ "type": "Feature", "properties": { "stid": "PACG", "synop_id": 999999, "name": "SITKA\/BIORKA\/88D", "state": "AK", "country": "US", "alt": 63 }, "geometry": { "type": "Point", "coordinates": [ -135.53, 56.85 ] } },
{ "type": "Feature", "properties": { "stid": "PAGY", "synop_id": 703620, "name": "SKAGWAY", "state": "AK", "country": "US", "alt": 5 }, "geometry": { "type": "Point", "coordinates": [ -135.3, 59.47 ] } },
{ "type": "Feature", "properties": { "stid": "PASW", "synop_id": 702550, "name": "SKWENTNA", "state": "AK", "country": "US", "alt": 48 }, "geometry": { "type": "Point", "coordinates": [ -151.19, 61.97 ] } },
{ "type": "Feature", "properties": { "stid": "PADT", "synop_id": 999999, "name": "SLANA", "state": "AK", "country": "US", "alt": 730 }, "geometry": { "type": "Point", "coordinates": [ -143.85, 62.72 ] } },
{ "type": "Feature", "properties": { "stid": "PASL", "synop_id": 999999, "name": "SLEETMUTE", "state": "AK", "country": "US", "alt": 55 }, "geometry": { "type": "Point", "coordinates": [ -157.15, 61.72 ] } },
{ "type": "Feature", "properties": { "stid": "PALK", "synop_id": 999999, "name": "SNOWSHOELAKE", "state": "AK", "country": "US", "alt": 735 }, "geometry": { "type": "Point", "coordinates": [ -142.66, 62.03 ] } },
{ "type": "Feature", "properties": { "stid": "PASX", "synop_id": 999999, "name": "SOLDOTNA", "state": "AK", "country": "US", "alt": 32 }, "geometry": { "type": "Point", "coordinates": [ -151.03, 60.48 ] } },
{ "type": "Feature", "properties": { "stid": "PFWS", "synop_id": 999999, "name": "SOUTHNAKNEK", "state": "AK", "country": "US", "alt": 49 }, "geometry": { "type": "Point", "coordinates": [ -157.0, 58.7 ] } },
{ "type": "Feature", "properties": { "stid": "PASV", "synop_id": 702350, "name": "SPARREVOHN", "state": "AK", "country": "US", "alt": 484 }, "geometry": { "type": "Point", "coordinates": [ -155.57, 61.1 ] } },
{ "type": "Feature", "properties": { "stid": "PAPB", "synop_id": 999999, "name": "STGEORGE", "state": "AK", "country": "US", "alt": 35 }, "geometry": { "type": "Point", "coordinates": [ -169.67, 56.58 ] } },
{ "type": "Feature", "properties": { "stid": "PAMK", "synop_id": 999999, "name": "STMICHAEL", "state": "AK", "country": "US", "alt": 28 }, "geometry": { "type": "Point", "coordinates": [ -162.12, 63.48 ] } },
{ "type": "Feature", "properties": { "stid": "PASN", "synop_id": 703080, "name": "STPAULISLAND", "state": "AK", "country": "US", "alt": 29 }, "geometry": { "type": "Point", "coordinates": [ -170.22, 57.15 ] } },
{ "type": "Feature", "properties": { "stid": "PAER", "synop_id": 999999, "name": "STONYRIVERLAND", "state": "AK", "country": "US", "alt": 345 }, "geometry": { "type": "Point", "coordinates": [ -153.8, 61.27 ] } },
{ "type": "Feature", "properties": { "stid": "PAJV", "synop_id": 999999, "name": "SUTTON", "state": "AK", "country": "US", "alt": 263 }, "geometry": { "type": "Point", "coordinates": [ -148.88, 61.72 ] } },
{ "type": "Feature", "properties": { "stid": "PASP", "synop_id": 999999, "name": "TAHNETNAPASSLO", "state": "AK", "country": "US", "alt": 799 }, "geometry": { "type": "Point", "coordinates": [ -147.55, 61.82 ] } },
{ "type": "Feature", "properties": { "stid": "PATK", "synop_id": 702510, "name": "TALKEETNA", "state": "AK", "country": "US", "alt": 109 }, "geometry": { "type": "Point", "coordinates": [ -150.1, 62.3 ] } },
{ "type": "Feature", "properties": { "stid": "PATA", "synop_id": 701780, "name": "TANANA", "state": "AK", "country": "US", "alt": 67 }, "geometry": { "type": "Point", "coordinates": [ -152.1, 65.17 ] } },
{ "type": "Feature", "properties": { "stid": "PATL", "synop_id": 999999, "name": "TATALINAAFS", "state": "AK", "country": "US", "alt": 294 }, "geometry": { "type": "Point", "coordinates": [ -155.97, 62.9 ] } },
{ "type": "Feature", "properties": { "stid": "PATE", "synop_id": 999999, "name": "TELLER", "state": "AK", "country": "US", "alt": 90 }, "geometry": { "type": "Point", "coordinates": [ -166.33, 65.23 ] } },
{ "type": "Feature", "properties": { "stid": "PATC", "synop_id": 701170, "name": "TINCITYAFS", "state": "AK", "country": "US", "alt": 83 }, "geometry": { "type": "Point", "coordinates": [ -167.92, 65.56 ] } },
{ "type": "Feature", "properties": { "stid": "PATG", "synop_id": 999999, "name": "TOGIAK", "state": "AK", "country": "US", "alt": 4 }, "geometry": { "type": "Point", "coordinates": [ -160.38, 59.05 ] } },
{ "type": "Feature", "properties": { "stid": "PAOO", "synop_id": 999999, "name": "TOKSOOKBAY", "state": "AK", "country": "US", "alt": 18 }, "geometry": { "type": "Point", "coordinates": [ -165.12, 60.53 ] } },
{ "type": "Feature", "properties": { "stid": "PAUM", "synop_id": 701620, "name": "UMIAT", "state": "AK", "country": "US", "alt": 104 }, "geometry": { "type": "Point", "coordinates": [ -152.13, 69.37 ] } },
{ "type": "Feature", "properties": { "stid": "PAUN", "synop_id": 702070, "name": "UNALAKLEET", "state": "AK", "country": "US", "alt": 6 }, "geometry": { "type": "Point", "coordinates": [ -160.8, 63.88 ] } },
{ "type": "Feature", "properties": { "stid": "PADU", "synop_id": 704890, "name": "DUTCHHARBOR", "state": "AK", "country": "US", "alt": 4 }, "geometry": { "type": "Point", "coordinates": [ -166.53, 53.9 ] } },
{ "type": "Feature", "properties": { "stid": "PAVD", "synop_id": 999999, "name": "VALDEZ", "state": "AK", "country": "US", "alt": 37 }, "geometry": { "type": "Point", "coordinates": [ -146.25, 61.13 ] } },
{ "type": "Feature", "properties": { "stid": "PAVW", "synop_id": 702750, "name": "VALDEZWSO", "state": "AK", "country": "US", "alt": 11 }, "geometry": { "type": "Point", "coordinates": [ -146.35, 61.13 ] } },
{ "type": "Feature", "properties": { "stid": "PAWI", "synop_id": 700300, "name": "WAINWRIGHT", "state": "AK", "country": "US", "alt": 27 }, "geometry": { "type": "Point", "coordinates": [ -159.85, 70.62 ] } },
{ "type": "Feature", "properties": { "stid": "PAIW", "synop_id": 999999, "name": "WALES", "state": "AK", "country": "US", "alt": 7 }, "geometry": { "type": "Point", "coordinates": [ -168.1, 65.62 ] } },
{ "type": "Feature", "properties": { "stid": "PAWS", "synop_id": 999999, "name": "WASILLA", "state": "AK", "country": "US", "alt": 107 }, "geometry": { "type": "Point", "coordinates": [ -149.53, 61.57 ] } },
{ "type": "Feature", "properties": { "stid": "PAWM", "synop_id": 999999, "name": "WHITEMOUNTAIN", "state": "AK", "country": "US", "alt": 82 }, "geometry": { "type": "Point", "coordinates": [ -163.41, 64.68 ] } },
{ "type": "Feature", "properties": { "stid": "PAWR", "synop_id": 999999, "name": "WHITTIER", "state": "AK", "country": "US", "alt": 47 }, "geometry": { "type": "Point", "coordinates": [ -148.72, 60.78 ] } },
{ "type": "Feature", "properties": { "stid": "PAUO", "synop_id": 999999, "name": "WILLOW", "state": "AK", "country": "US", "alt": 69 }, "geometry": { "type": "Point", "coordinates": [ -150.05, 61.75 ] } },
{ "type": "Feature", "properties": { "stid": "PAIZ", "synop_id": 999999, "name": "WOLVERINEROAD", "state": "AK", "country": "US", "alt": 236 }, "geometry": { "type": "Point", "coordinates": [ -149.03, 61.63 ] } },
{ "type": "Feature", "properties": { "stid": "PAWG", "synop_id": 703870, "name": "WRANGELL", "state": "AK", "country": "US", "alt": 11 }, "geometry": { "type": "Point", "coordinates": [ -132.37, 56.48 ] } },
{ "type": "Feature", "properties": { "stid": "PAYA", "synop_id": 703610, "name": "YAKUTAT", "state": "AK", "country": "US", "alt": 11 }, "geometry": { "type": "Point", "coordinates": [ -139.66, 59.52 ] } },
{ "type": "Feature", "properties": { "stid": "PZ74", "synop_id": 999999, "name": "ALASKANARTCC", "state": "AK", "country": "US", "alt": 1 }, "geometry": { "type": "Point", "coordinates": [ -164.28, 60.15 ] } },
{ "type": "Feature", "properties": { "stid": "PZ76", "synop_id": 999999, "name": "ALASKANARTCC", "state": "AK", "country": "US", "alt": 647 }, "geometry": { "type": "Point", "coordinates": [ -134.65, 65.25 ] } },
{ "type": "Feature", "properties": { "stid": "KEET", "synop_id": 999999, "name": "ALABASTER", "state": "AL", "country": "US", "alt": 173 }, "geometry": { "type": "Point", "coordinates": [ -86.78, 33.18 ] } },
{ "type": "Feature", "properties": { "stid": "K8A0", "synop_id": 999999, "name": "ALBERTVILLEMUNI", "state": "AL", "country": "US", "alt": 315 }, "geometry": { "type": "Point", "coordinates": [ -86.25, 34.22 ] } },
{ "type": "Feature", "properties": { "stid": "KALX", "synop_id": 999999, "name": "ALEXANDER\/RUSSEL", "state": "AL", "country": "US", "alt": 209 }, "geometry": { "type": "Point", "coordinates": [ -85.97, 32.92 ] } },
{ "type": "Feature", "properties": { "stid": "K79J", "synop_id": 999999, "name": "ANDALUSIA\/OPPAR", "state": "AL", "country": "US", "alt": 94 }, "geometry": { "type": "Point", "coordinates": [ -86.4, 31.32 ] } },
{ "type": "Feature", "properties": { "stid": "KANB", "synop_id": 999999, "name": "ANNISTON", "state": "AL", "country": "US", "alt": 183 }, "geometry": { "type": "Point", "coordinates": [ -85.85, 33.58 ] } },
{ "type": "Feature", "properties": { "stid": "KAUB", "synop_id": 999999, "name": "AUBURNUNIV.(AM", "state": "AL", "country": "US", "alt": 198 }, "geometry": { "type": "Point", "coordinates": [ -85.5, 32.6 ] } },
{ "type": "Feature", "properties": { "stid": "KAUO", "synop_id": 999999, "name": "AUBURNOPELIKAA", "state": "AL", "country": "US", "alt": 236 }, "geometry": { "type": "Point", "coordinates": [ -85.42, 32.61 ] } },
{ "type": "Feature", "properties": { "stid": "KEKY", "synop_id": 999999, "name": "BESSEMER", "state": "AL", "country": "US", "alt": 213 }, "geometry": { "type": "Point", "coordinates": [ -86.92, 33.32 ] } },
{ "type": "Feature", "properties": { "stid": "KBHM", "synop_id": 722280, "name": "BIRMINGHAM", "state": "AL", "country": "US", "alt": 197 }, "geometry": { "type": "Point", "coordinates": [ -86.75, 33.57 ] } },
{ "type": "Feature", "properties": { "stid": "KBMX", "synop_id": 722300, "name": "BRMNGHM\/ALABASTR", "state": "AL", "country": "US", "alt": 197 }, "geometry": { "type": "Point", "coordinates": [ -86.77, 33.17 ] } },
{ "type": "Feature", "properties": { "stid": "KOZR", "synop_id": 999999, "name": "OZARK\/CAIRNSAAF", "state": "AL", "country": "US", "alt": 93 }, "geometry": { "type": "Point", "coordinates": [ -85.72, 31.28 ] } },
{ "type": "Feature", "properties": { "stid": "K0A8", "synop_id": 722290, "name": "CENTREVILLEWSM", "state": "AL", "country": "US", "alt": 77 }, "geometry": { "type": "Point", "coordinates": [ -87.08, 32.93 ] } },
{ "type": "Feature", "properties": { "stid": "K9A4", "synop_id": 999999, "name": "COURTLAND", "state": "AL", "country": "US", "alt": 179 }, "geometry": { "type": "Point", "coordinates": [ -87.35, 34.67 ] } },
{ "type": "Feature", "properties": { "stid": "K3A1", "synop_id": 999999, "name": "CULLMAN\/FOLSOMF", "state": "AL", "country": "US", "alt": 294 }, "geometry": { "type": "Point", "coordinates": [ -86.85, 34.27 ] } },
{ "type": "Feature", "properties": { "stid": "KCMD", "synop_id": 999999, "name": "CULLMAN\/FOLSOMF", "state": "AL", "country": "US", "alt": 294 }, "geometry": { "type": "Point", "coordinates": [ -86.85, 34.27 ] } },
{ "type": "Feature", "properties": { "stid": "KDCU", "synop_id": 999999, "name": "DECATUR", "state": "AL", "country": "US", "alt": 176 }, "geometry": { "type": "Point", "coordinates": [ -86.95, 34.65 ] } },
{ "type": "Feature", "properties": { "stid": "KDYA", "synop_id": 999999, "name": "DEMOPOLIS", "state": "AL", "country": "US", "alt": 34 }, "geometry": { "type": "Point", "coordinates": [ -87.95, 32.47 ] } },
{ "type": "Feature", "properties": { "stid": "KDHN", "synop_id": 999999, "name": "DOTHAN", "state": "AL", "country": "US", "alt": 113 }, "geometry": { "type": "Point", "coordinates": [ -85.45, 31.32 ] } },
{ "type": "Feature", "properties": { "stid": "KEUF", "synop_id": 999999, "name": "EUFAULA", "state": "AL", "country": "US", "alt": 87 }, "geometry": { "type": "Point", "coordinates": [ -85.13, 31.95 ] } },
{ "type": "Feature", "properties": { "stid": "KGZH", "synop_id": 999999, "name": "EVERGREEN", "state": "AL", "country": "US", "alt": 78 }, "geometry": { "type": "Point", "coordinates": [ -87.05, 31.42 ] } },
{ "type": "Feature", "properties": { "stid": "KCQF", "synop_id": 999999, "name": "FAIRHOPE", "state": "AL", "country": "US", "alt": 28 }, "geometry": { "type": "Point", "coordinates": [ -87.88, 30.47 ] } },
{ "type": "Feature", "properties": { "stid": "K0J4", "synop_id": 999999, "name": "FLORALAMUNI", "state": "AL", "country": "US", "alt": 96 }, "geometry": { "type": "Point", "coordinates": [ -86.32, 31.05 ] } },
{ "type": "Feature", "properties": { "stid": "K4A9", "synop_id": 999999, "name": "FTPAYNE\/ISBELL", "state": "AL", "country": "US", "alt": 267 }, "geometry": { "type": "Point", "coordinates": [ -85.72, 34.47 ] } },
{ "type": "Feature", "properties": { "stid": "KEOX", "synop_id": 999999, "name": "FTRUCKER88D", "state": "AL", "country": "US", "alt": 132 }, "geometry": { "type": "Point", "coordinates": [ -85.47, 31.47 ] } },
{ "type": "Feature", "properties": { "stid": "KSXS", "synop_id": 999999, "name": "FTRUCKER\/SHELL", "state": "AL", "country": "US", "alt": 122 }, "geometry": { "type": "Point", "coordinates": [ -85.85, 31.37 ] } },
{ "type": "Feature", "properties": { "stid": "KHEY", "synop_id": 999999, "name": "FTRUCKER\/HANCHE", "state": "AL", "country": "US", "alt": 97 }, "geometry": { "type": "Point", "coordinates": [ -85.65, 31.35 ] } },
{ "type": "Feature", "properties": { "stid": "KGAD", "synop_id": 999999, "name": "GADSDENMUNI", "state": "AL", "country": "US", "alt": 173 }, "geometry": { "type": "Point", "coordinates": [ -86.07, 33.97 ] } },
{ "type": "Feature", "properties": { "stid": "KPRN", "synop_id": 999999, "name": "GREENVILLE", "state": "AL", "country": "US", "alt": 138 }, "geometry": { "type": "Point", "coordinates": [ -86.62, 31.85 ] } },
{ "type": "Feature", "properties": { "stid": "KJKA", "synop_id": 999999, "name": "GULFSHORES", "state": "AL", "country": "US", "alt": 5 }, "geometry": { "type": "Point", "coordinates": [ -87.67, 30.28 ] } },
{ "type": "Feature", "properties": { "stid": "K1M4", "synop_id": 999999, "name": "HALEYVILLE", "state": "AL", "country": "US", "alt": 284 }, "geometry": { "type": "Point", "coordinates": [ -87.6, 34.28 ] } },
{ "type": "Feature", "properties": { "stid": "KHSV", "synop_id": 723230, "name": "HUNTSVILLE", "state": "AL", "country": "US", "alt": 191 }, "geometry": { "type": "Point", "coordinates": [ -86.78, 34.65 ] } },
{ "type": "Feature", "properties": { "stid": "KMDQ", "synop_id": 999999, "name": "HUNTSVILLE\/MADIS", "state": "AL", "country": "US", "alt": 230 }, "geometry": { "type": "Point", "coordinates": [ -86.55, 34.86 ] } },
{ "type": "Feature", "properties": { "stid": "KHTX", "synop_id": 999999, "name": "HYTOP\/88D", "state": "AL", "country": "US", "alt": 536 }, "geometry": { "type": "Point", "coordinates": [ -86.08, 34.93 ] } },
{ "type": "Feature", "properties": { "stid": "KJFX", "synop_id": 999999, "name": "JASPER\/WALKER", "state": "AL", "country": "US", "alt": 148 }, "geometry": { "type": "Point", "coordinates": [ -87.32, 33.9 ] } },
{ "type": "Feature", "properties": { "stid": "KLOR", "synop_id": 999999, "name": "LOWEAHP\/FT.RUC", "state": "AL", "country": "US", "alt": 74 }, "geometry": { "type": "Point", "coordinates": [ -85.75, 31.35 ] } },
{ "type": "Feature", "properties": { "stid": "KA08", "synop_id": 999999, "name": "MARION", "state": "AL", "country": "US", "alt": 67 }, "geometry": { "type": "Point", "coordinates": [ -87.38, 32.52 ] } },
{ "type": "Feature", "properties": { "stid": "KMXX", "synop_id": 999999, "name": "MAXWELLAFB88D", "state": "AL", "country": "US", "alt": 122 }, "geometry": { "type": "Point", "coordinates": [ -85.78, 32.53 ] } },
{ "type": "Feature", "properties": { "stid": "KMXF", "synop_id": 999999, "name": "MAXWELLAFB\/MGM", "state": "AL", "country": "US", "alt": 51 }, "geometry": { "type": "Point", "coordinates": [ -86.37, 32.36 ] } },
{ "type": "Feature", "properties": { "stid": "KBFM", "synop_id": 999999, "name": "MOBILE\/BROOKLEY", "state": "AL", "country": "US", "alt": 20 }, "geometry": { "type": "Point", "coordinates": [ -88.07, 30.62 ] } },
{ "type": "Feature", "properties": { "stid": "KMOB", "synop_id": 722230, "name": "MOBILE\/BATES", "state": "AL", "country": "US", "alt": 63 }, "geometry": { "type": "Point", "coordinates": [ -88.25, 30.68 ] } },
{ "type": "Feature", "properties": { "stid": "KMGM", "synop_id": 722260, "name": "MONTGOMERY", "state": "AL", "country": "US", "alt": 63 }, "geometry": { "type": "Point", "coordinates": [ -86.4, 32.29 ] } },
{ "type": "Feature", "properties": { "stid": "KMSL", "synop_id": 999999, "name": "MUSCLESHOAL", "state": "AL", "country": "US", "alt": 164 }, "geometry": { "type": "Point", "coordinates": [ -87.6, 34.75 ] } },
{ "type": "Feature", "properties": { "stid": "KMVC", "synop_id": 999999, "name": "MONROEVILLE", "state": "AL", "country": "US", "alt": 128 }, "geometry": { "type": "Point", "coordinates": [ -87.35, 31.45 ] } },
{ "type": "Feature", "properties": { "stid": "KPLR", "synop_id": 999999, "name": "PELLCITY", "state": "AL", "country": "US", "alt": 148 }, "geometry": { "type": "Point", "coordinates": [ -86.25, 33.57 ] } },
{ "type": "Feature", "properties": { "stid": "KRAM", "synop_id": 999999, "name": "PHIOILPLAT", "state": "AL", "country": "US", "alt": 10 }, "geometry": { "type": "Point", "coordinates": [ -88.08, 29.05 ] } },
{ "type": "Feature", "properties": { "stid": "K1A9", "synop_id": 999999, "name": "PRATTVILLE", "state": "AL", "country": "US", "alt": 69 }, "geometry": { "type": "Point", "coordinates": [ -86.52, 32.6 ] } },
{ "type": "Feature", "properties": { "stid": "KHUA", "synop_id": 740010, "name": "REDSTONEARSENAL", "state": "AL", "country": "US", "alt": 209 }, "geometry": { "type": "Point", "coordinates": [ -86.68, 34.68 ] } },
{ "type": "Feature", "properties": { "stid": "K4A6", "synop_id": 999999, "name": "SCOTTSBORO", "state": "AL", "country": "US", "alt": 198 }, "geometry": { "type": "Point", "coordinates": [ -86.0, 34.68 ] } },
{ "type": "Feature", "properties": { "stid": "KSEM", "synop_id": 999999, "name": "SELMA", "state": "AL", "country": "US", "alt": 51 }, "geometry": { "type": "Point", "coordinates": [ -86.98, 32.35 ] } },
{ "type": "Feature", "properties": { "stid": "KSJI", "synop_id": 999999, "name": "SEMMNESVOR", "state": "AL", "country": "US", "alt": 63 }, "geometry": { "type": "Point", "coordinates": [ -88.37, 30.73 ] } },
{ "type": "Feature", "properties": { "stid": "KSCD", "synop_id": 999999, "name": "SYLACAUGA", "state": "AL", "country": "US", "alt": 173 }, "geometry": { "type": "Point", "coordinates": [ -86.3, 33.17 ] } },
{ "type": "Feature", "properties": { "stid": "KASN", "synop_id": 999999, "name": "TALLADEGA", "state": "AL", "country": "US", "alt": 162 }, "geometry": { "type": "Point", "coordinates": [ -86.05, 33.57 ] } },
{ "type": "Feature", "properties": { "stid": "KTOI", "synop_id": 999999, "name": "TROY", "state": "AL", "country": "US", "alt": 118 }, "geometry": { "type": "Point", "coordinates": [ -86.02, 31.85 ] } },
{ "type": "Feature", "properties": { "stid": "KTCL", "synop_id": 999999, "name": "TUSCALOOSA", "state": "AL", "country": "US", "alt": 49 }, "geometry": { "type": "Point", "coordinates": [ -87.62, 33.22 ] } },
{ "type": "Feature", "properties": { "stid": "KVUZ", "synop_id": 999999, "name": "VULCANVOR", "state": "AL", "country": "US", "alt": 250 }, "geometry": { "type": "Point", "coordinates": [ -86.9, 33.67 ] } },
{ "type": "Feature", "properties": { "stid": "KCKL", "synop_id": 999999, "name": "CENTREVILLEWSM", "state": "AL", "country": "US", "alt": 140 }, "geometry": { "type": "Point", "coordinates": [ -87.25, 32.88 ] } },
{ "type": "Feature", "properties": { "stid": "K4R9", "synop_id": 994420, "name": "DAUPHINISLAND", "state": "AL", "country": "US", "alt": 2 }, "geometry": { "type": "Point", "coordinates": [ -88.13, 30.27 ] } },
{ "type": "Feature", "properties": { "stid": "K4R4", "synop_id": 999999, "name": "FAIRHOPE", "state": "AL", "country": "US", "alt": 28 }, "geometry": { "type": "Point", "coordinates": [ -87.88, 30.47 ] } },
{ "type": "Feature", "properties": { "stid": "KM82", "synop_id": 999999, "name": "HUNTSVILLE\/MADIS", "state": "AL", "country": "US", "alt": 231 }, "geometry": { "type": "Point", "coordinates": [ -86.55, 34.85 ] } },
{ "type": "Feature", "properties": { "stid": "KVOA", "synop_id": 999999, "name": "VIOSCAKNOLL768", "state": "AL", "country": "US", "alt": 53 }, "geometry": { "type": "Point", "coordinates": [ -87.78, 29.23 ] } },
{ "type": "Feature", "properties": { "stid": "KADF", "synop_id": 999999, "name": "ARKADELPHIA", "state": "AR", "country": "US", "alt": 56 }, "geometry": { "type": "Point", "coordinates": [ -93.07, 34.1 ] } },
{ "type": "Feature", "properties": { "stid": "KBVX", "synop_id": 999999, "name": "BATESVILLE", "state": "AR", "country": "US", "alt": 141 }, "geometry": { "type": "Point", "coordinates": [ -91.65, 35.72 ] } },
{ "type": "Feature", "properties": { "stid": "KH00", "synop_id": 999999, "name": "BENTONVILLE", "state": "AR", "country": "US", "alt": 395 }, "geometry": { "type": "Point", "coordinates": [ -94.22, 36.35 ] } },
{ "type": "Feature", "properties": { "stid": "KVBT", "synop_id": 999999, "name": "BENTONVILLE", "state": "AR", "country": "US", "alt": 395 }, "geometry": { "type": "Point", "coordinates": [ -94.22, 36.35 ] } },
{ "type": "Feature", "properties": { "stid": "KXNA", "synop_id": 999999, "name": "BENTONVILLE(NW)", "state": "AR", "country": "US", "alt": 392 }, "geometry": { "type": "Point", "coordinates": [ -94.3, 36.28 ] } },
{ "type": "Feature", "properties": { "stid": "KHKA", "synop_id": 999999, "name": "BLYTHEVILLE", "state": "AR", "country": "US", "alt": 78 }, "geometry": { "type": "Point", "coordinates": [ -89.83, 35.93 ] } },
{ "type": "Feature", "properties": { "stid": "KBYH", "synop_id": 999999, "name": "BLYTHEVILLE", "state": "AR", "country": "US", "alt": 78 }, "geometry": { "type": "Point", "coordinates": [ -89.95, 35.97 ] } },
{ "type": "Feature", "properties": { "stid": "KCDH", "synop_id": 999999, "name": "CAMDEN", "state": "AR", "country": "US", "alt": 35 }, "geometry": { "type": "Point", "coordinates": [ -92.77, 33.61 ] } },
{ "type": "Feature", "properties": { "stid": "KCCA", "synop_id": 999999, "name": "CLINTONMUNI", "state": "AR", "country": "US", "alt": 157 }, "geometry": { "type": "Point", "coordinates": [ -92.45, 35.6 ] } },
{ "type": "Feature", "properties": { "stid": "K4M9", "synop_id": 999999, "name": "CORNING", "state": "AR", "country": "US", "alt": 90 }, "geometry": { "type": "Point", "coordinates": [ -90.65, 36.4 ] } },
{ "type": "Feature", "properties": { "stid": "KDEQ", "synop_id": 999999, "name": "DEQUEEN", "state": "AR", "country": "US", "alt": 106 }, "geometry": { "type": "Point", "coordinates": [ -94.4, 34.04 ] } },
{ "type": "Feature", "properties": { "stid": "KDQU", "synop_id": 747520, "name": "DEQUEENPROFILER", "state": "AR", "country": "US", "alt": 195 }, "geometry": { "type": "Point", "coordinates": [ -94.28, 34.1 ] } },
{ "type": "Feature", "properties": { "stid": "KELD", "synop_id": 999999, "name": "ELDORADO", "state": "AR", "country": "US", "alt": 81 }, "geometry": { "type": "Point", "coordinates": [ -92.82, 33.22 ] } },
{ "type": "Feature", "properties": { "stid": "KFYV", "synop_id": 999999, "name": "FAYETTEVILLE", "state": "AR", "country": "US", "alt": 379 }, "geometry": { "type": "Point", "coordinates": [ -94.17, 36.02 ] } },
{ "type": "Feature", "properties": { "stid": "KFLP", "synop_id": 999999, "name": "FLIPPIN(AWOS)", "state": "AR", "country": "US", "alt": 219 }, "geometry": { "type": "Point", "coordinates": [ -92.58, 36.28 ] } },
{ "type": "Feature", "properties": { "stid": "KFSM", "synop_id": 723440, "name": "FORTSMITH", "state": "AR", "country": "US", "alt": 140 }, "geometry": { "type": "Point", "coordinates": [ -94.37, 35.33 ] } },
{ "type": "Feature", "properties": { "stid": "KSRX", "synop_id": 999999, "name": "SLATINGTONMTN.", "state": "AR", "country": "US", "alt": 195 }, "geometry": { "type": "Point", "coordinates": [ -94.37, 35.28 ] } },
{ "type": "Feature", "properties": { "stid": "KHRO", "synop_id": 999999, "name": "HARRISON", "state": "AR", "country": "US", "alt": 417 }, "geometry": { "type": "Point", "coordinates": [ -93.15, 36.27 ] } },
{ "type": "Feature", "properties": { "stid": "KHOT", "synop_id": 999999, "name": "HOTSPRINGS", "state": "AR", "country": "US", "alt": 162 }, "geometry": { "type": "Point", "coordinates": [ -93.1, 34.47 ] } },
{ "type": "Feature", "properties": { "stid": "KJBR", "synop_id": 999999, "name": "JONESBORO", "state": "AR", "country": "US", "alt": 79 }, "geometry": { "type": "Point", "coordinates": [ -90.65, 35.83 ] } },
{ "type": "Feature", "properties": { "stid": "KLIT", "synop_id": 999999, "name": "LITTLEROCK", "state": "AR", "country": "US", "alt": 79 }, "geometry": { "type": "Point", "coordinates": [ -92.23, 34.72 ] } },
{ "type": "Feature", "properties": { "stid": "KLRF", "synop_id": 999999, "name": "LITTLEROCKAFB", "state": "AR", "country": "US", "alt": 95 }, "geometry": { "type": "Point", "coordinates": [ -92.15, 34.92 ] } },
{ "type": "Feature", "properties": { "stid": "KMEZ", "synop_id": 999999, "name": "MENAINTERMTN", "state": "AR", "country": "US", "alt": 329 }, "geometry": { "type": "Point", "coordinates": [ -94.2, 34.54 ] } },
{ "type": "Feature", "properties": { "stid": "KAWM", "synop_id": 999999, "name": "WMEMPHISMUNI", "state": "AR", "country": "US", "alt": 65 }, "geometry": { "type": "Point", "coordinates": [ -90.23, 35.13 ] } },
{ "type": "Feature", "properties": { "stid": "KLLQ", "synop_id": 999999, "name": "MONTICELLO", "state": "AR", "country": "US", "alt": 83 }, "geometry": { "type": "Point", "coordinates": [ -91.75, 33.63 ] } },
{ "type": "Feature", "properties": { "stid": "KMWT", "synop_id": 999999, "name": "MOUNTIDA", "state": "AR", "country": "US", "alt": 214 }, "geometry": { "type": "Point", "coordinates": [ -93.58, 34.54 ] } },
{ "type": "Feature", "properties": { "stid": "KBPK", "synop_id": 999999, "name": "MOUNTAINHOME", "state": "AR", "country": "US", "alt": 280 }, "geometry": { "type": "Point", "coordinates": [ -92.47, 36.36 ] } },
{ "type": "Feature", "properties": { "stid": "KLZK", "synop_id": 723400, "name": "N.LITTLEROCK", "state": "AR", "country": "US", "alt": 173 }, "geometry": { "type": "Point", "coordinates": [ -92.27, 34.83 ] } },
{ "type": "Feature", "properties": { "stid": "KM19", "synop_id": 999999, "name": "NEWPORT", "state": "AR", "country": "US", "alt": 73 }, "geometry": { "type": "Point", "coordinates": [ -91.17, 35.65 ] } },
{ "type": "Feature", "properties": { "stid": "KPBF", "synop_id": 999999, "name": "PINEBLUFF\/GRIDR", "state": "AR", "country": "US", "alt": 62 }, "geometry": { "type": "Point", "coordinates": [ -91.93, 34.18 ] } },
{ "type": "Feature", "properties": { "stid": "KRZC", "synop_id": 999999, "name": "RAZORBACKVOR", "state": "AR", "country": "US", "alt": 443 }, "geometry": { "type": "Point", "coordinates": [ -94.12, 36.25 ] } },
{ "type": "Feature", "properties": { "stid": "KROG", "synop_id": 999999, "name": "ROGERS", "state": "AR", "country": "US", "alt": 415 }, "geometry": { "type": "Point", "coordinates": [ -94.08, 36.36 ] } },
{ "type": "Feature", "properties": { "stid": "KRUE", "synop_id": 999999, "name": "RUSSELLVILLE", "state": "AR", "country": "US", "alt": 115 }, "geometry": { "type": "Point", "coordinates": [ -93.1, 35.25 ] } },
{ "type": "Feature", "properties": { "stid": "KSRC", "synop_id": 999999, "name": "SEARCY", "state": "AR", "country": "US", "alt": 80 }, "geometry": { "type": "Point", "coordinates": [ -91.73, 35.22 ] } },
{ "type": "Feature", "properties": { "stid": "KSLG", "synop_id": 999999, "name": "SILOAMSPRING", "state": "AR", "country": "US", "alt": 300 }, "geometry": { "type": "Point", "coordinates": [ -94.47, 36.2 ] } },
{ "type": "Feature", "properties": { "stid": "KASG", "synop_id": 999999, "name": "SPRINGDALEMUNI", "state": "AR", "country": "US", "alt": 412 }, "geometry": { "type": "Point", "coordinates": [ -94.12, 36.17 ] } },
{ "type": "Feature", "properties": { "stid": "KSGT", "synop_id": 999999, "name": "STUTTGART", "state": "AR", "country": "US", "alt": 68 }, "geometry": { "type": "Point", "coordinates": [ -91.57, 34.6 ] } },
{ "type": "Feature", "properties": { "stid": "KTXK", "synop_id": 999999, "name": "TEXARKANA", "state": "AR", "country": "US", "alt": 111 }, "geometry": { "type": "Point", "coordinates": [ -93.98, 33.45 ] } },
{ "type": "Feature", "properties": { "stid": "KARG", "synop_id": 999999, "name": "WALNUTRIDGE", "state": "AR", "country": "US", "alt": 83 }, "geometry": { "type": "Point", "coordinates": [ -90.92, 36.11 ] } },
{ "type": "Feature", "properties": { "stid": "KM89", "synop_id": 999999, "name": "ARKADELPHIA", "state": "AR", "country": "US", "alt": 56 }, "geometry": { "type": "Point", "coordinates": [ -93.07, 34.1 ] } },
{ "type": "Feature", "properties": { "stid": "690500FO", "synop_id": 0, "name": "FEEARUS35", "state": "17", "country": "-9", "alt": 0 }, "geometry": { "type": "Point", "coordinates": [ 14.3, 4.8 ] } },
{ "type": "Feature", "properties": { "stid": "KM39", "synop_id": 999999, "name": "MENAINTERMTN", "state": "AR", "country": "US", "alt": 329 }, "geometry": { "type": "Point", "coordinates": [ -94.2, 34.54 ] } },
{ "type": "Feature", "properties": { "stid": "KPHX", "synop_id": 722780, "name": "PHOENIX\/SKYHRBR", "state": "AZ", "country": "US", "alt": 336 }, "geometry": { "type": "Point", "coordinates": [ -112.02, 33.43 ] } },
{ "type": "Feature", "properties": { "stid": "KTUS", "synop_id": 999999, "name": "TUCSON", "state": "AZ", "country": "US", "alt": 776 }, "geometry": { "type": "Point", "coordinates": [ -110.95, 32.13 ] } },
{ "type": "Feature", "properties": { "stid": "KBXK", "synop_id": 999999, "name": "BUCKEYE", "state": "AZ", "country": "US", "alt": 315 }, "geometry": { "type": "Point", "coordinates": [ -112.68, 33.42 ] } },
{ "type": "Feature", "properties": { "stid": "KIFP", "synop_id": 999999, "name": "BULLHEADCITY", "state": "AZ", "country": "US", "alt": 212 }, "geometry": { "type": "Point", "coordinates": [ -114.57, 35.15 ] } },
{ "type": "Feature", "properties": { "stid": "KCGZ", "synop_id": 999999, "name": "CASAGRANDA", "state": "AZ", "country": "US", "alt": 446 }, "geometry": { "type": "Point", "coordinates": [ -111.77, 32.95 ] } },
{ "type": "Feature", "properties": { "stid": "KIWA", "synop_id": 999999, "name": "CHANDLER\/MESA", "state": "AZ", "country": "US", "alt": 412 }, "geometry": { "type": "Point", "coordinates": [ -111.65, 33.29 ] } },
{ "type": "Feature", "properties": { "stid": "KCHD", "synop_id": 999999, "name": "CHANDLER", "state": "AZ", "country": "US", "alt": 379 }, "geometry": { "type": "Point", "coordinates": [ -111.82, 33.27 ] } },
{ "type": "Feature", "properties": { "stid": "KFSX", "synop_id": 999999, "name": "COCONINO\/FLAGSTF", "state": "AZ", "country": "US", "alt": 2261 }, "geometry": { "type": "Point", "coordinates": [ -111.2, 34.57 ] } },
{ "type": "Feature", "properties": { "stid": "KAZC", "synop_id": 999999, "name": "COLORADOCITY", "state": "AZ", "country": "US", "alt": 1486 }, "geometry": { "type": "Point", "coordinates": [ -113.02, 36.97 ] } },
{ "type": "Feature", "properties": { "stid": "KP08", "synop_id": 999999, "name": "COOLIDGEMUNI", "state": "AZ", "country": "US", "alt": 481 }, "geometry": { "type": "Point", "coordinates": [ -111.43, 32.93 ] } },
{ "type": "Feature", "properties": { "stid": "KDMA", "synop_id": 999999, "name": "DAVIS\/TUCSON", "state": "AZ", "country": "US", "alt": 824 }, "geometry": { "type": "Point", "coordinates": [ -110.87, 32.17 ] } },
{ "type": "Feature", "properties": { "stid": "KDUG", "synop_id": 999999, "name": "DOUGLASBISBEE", "state": "AZ", "country": "US", "alt": 1265 }, "geometry": { "type": "Point", "coordinates": [ -109.58, 31.47 ] } },
{ "type": "Feature", "properties": { "stid": "KFLG", "synop_id": 723750, "name": "FLAGSTAFF", "state": "AZ", "country": "US", "alt": 2134 }, "geometry": { "type": "Point", "coordinates": [ -111.67, 35.13 ] } },
{ "type": "Feature", "properties": { "stid": "KFGZ", "synop_id": 723760, "name": "FLAGSTAFF\/BELLEM", "state": "AZ", "country": "US", "alt": 2192 }, "geometry": { "type": "Point", "coordinates": [ -111.82, 35.22 ] } },
{ "type": "Feature", "properties": { "stid": "KFHU", "synop_id": 722730, "name": "FORTHUACHUCA", "state": "AZ", "country": "US", "alt": 1438 }, "geometry": { "type": "Point", "coordinates": [ -110.35, 31.58 ] } },
{ "type": "Feature", "properties": { "stid": "KGXF", "synop_id": 747240, "name": "GILABEND(AAF)", "state": "AZ", "country": "US", "alt": 262 }, "geometry": { "type": "Point", "coordinates": [ -112.72, 32.86 ] } },
{ "type": "Feature", "properties": { "stid": "KGEU", "synop_id": 999999, "name": "GLENDALE", "state": "AZ", "country": "US", "alt": 325 }, "geometry": { "type": "Point", "coordinates": [ -112.3, 33.53 ] } },
{ "type": "Feature", "properties": { "stid": "KLUF", "synop_id": 999999, "name": "LUKEAFB\/GLENDAL", "state": "AZ", "country": "US", "alt": 332 }, "geometry": { "type": "Point", "coordinates": [ -112.37, 33.52 ] } },
{ "type": "Feature", "properties": { "stid": "KGYR", "synop_id": 999999, "name": "GOODYEARMUNICIP", "state": "AZ", "country": "US", "alt": 295 }, "geometry": { "type": "Point", "coordinates": [ -112.37, 33.42 ] } },
{ "type": "Feature", "properties": { "stid": "KGCN", "synop_id": 723780, "name": "GRANDCANYON", "state": "AZ", "country": "US", "alt": 2016 }, "geometry": { "type": "Point", "coordinates": [ -112.15, 35.95 ] } },
{ "type": "Feature", "properties": { "stid": "K40G", "synop_id": 999999, "name": "GRANDCANYON\/VAL", "state": "AZ", "country": "US", "alt": 1830 }, "geometry": { "type": "Point", "coordinates": [ -112.15, 35.63 ] } },
{ "type": "Feature", "properties": { "stid": "KIGM", "synop_id": 723700, "name": "KINGMAN", "state": "AZ", "country": "US", "alt": 1032 }, "geometry": { "type": "Point", "coordinates": [ -113.93, 35.25 ] } },
{ "type": "Feature", "properties": { "stid": "KHII", "synop_id": 999999, "name": "LAKEHAVASUCITY", "state": "AZ", "country": "US", "alt": 238 }, "geometry": { "type": "Point", "coordinates": [ -114.37, 34.57 ] } },
{ "type": "Feature", "properties": { "stid": "KA39", "synop_id": 999999, "name": "MARICOPA", "state": "AZ", "country": "US", "alt": 398 }, "geometry": { "type": "Point", "coordinates": [ -111.92, 32.98 ] } },
{ "type": "Feature", "properties": { "stid": "KAVQ", "synop_id": 999999, "name": "MARANA", "state": "AZ", "country": "US", "alt": 619 }, "geometry": { "type": "Point", "coordinates": [ -111.22, 32.42 ] } },
{ "type": "Feature", "properties": { "stid": "KFFZ", "synop_id": 999999, "name": "MESA\/FALCONFLD", "state": "AZ", "country": "US", "alt": 424 }, "geometry": { "type": "Point", "coordinates": [ -111.72, 33.47 ] } },
{ "type": "Feature", "properties": { "stid": "KOLS", "synop_id": 999999, "name": "NOGALES", "state": "AZ", "country": "US", "alt": 1184 }, "geometry": { "type": "Point", "coordinates": [ -110.85, 31.42 ] } },
{ "type": "Feature", "properties": { "stid": "KPGA", "synop_id": 723710, "name": "PAGE", "state": "AZ", "country": "US", "alt": 1307 }, "geometry": { "type": "Point", "coordinates": [ -111.45, 36.92 ] } },
{ "type": "Feature", "properties": { "stid": "KPAN", "synop_id": 999999, "name": "PAYSON", "state": "AZ", "country": "US", "alt": 1572 }, "geometry": { "type": "Point", "coordinates": [ -111.33, 34.25 ] } },
{ "type": "Feature", "properties": { "stid": "KPGS", "synop_id": 999999, "name": "PEACHSPRING", "state": "AZ", "country": "US", "alt": 1450 }, "geometry": { "type": "Point", "coordinates": [ -113.53, 35.61 ] } },
{ "type": "Feature", "properties": { "stid": "KDVT", "synop_id": 999999, "name": "PHOENIX\/DEERVLY", "state": "AZ", "country": "US", "alt": 443 }, "geometry": { "type": "Point", "coordinates": [ -112.07, 33.68 ] } },
{ "type": "Feature", "properties": { "stid": "KPSR", "synop_id": 746260, "name": "PHOENIX\/WFO", "state": "AZ", "country": "US", "alt": 342 }, "geometry": { "type": "Point", "coordinates": [ -112.02, 33.43 ] } },
{ "type": "Feature", "properties": { "stid": "KEMX", "synop_id": 999999, "name": "PIMACOUNTY\/88D", "state": "AZ", "country": "US", "alt": 1586 }, "geometry": { "type": "Point", "coordinates": [ -110.63, 31.9 ] } },
{ "type": "Feature", "properties": { "stid": "KALK", "synop_id": 999999, "name": "PIONEERAIRFIELD", "state": "AZ", "country": "US", "alt": 1453 }, "geometry": { "type": "Point", "coordinates": [ -110.43, 31.6 ] } },
{ "type": "Feature", "properties": { "stid": "KPRC", "synop_id": 999999, "name": "PRESCOTT", "state": "AZ", "country": "US", "alt": 1524 }, "geometry": { "type": "Point", "coordinates": [ -112.42, 34.65 ] } },
{ "type": "Feature", "properties": { "stid": "KDRK", "synop_id": 999999, "name": "PRESCOTT(VOR)", "state": "AZ", "country": "US", "alt": 1524 }, "geometry": { "type": "Point", "coordinates": [ -112.48, 34.7 ] } },
{ "type": "Feature", "properties": { "stid": "KSAD", "synop_id": 999999, "name": "SAFFORD", "state": "AZ", "country": "US", "alt": 962 }, "geometry": { "type": "Point", "coordinates": [ -109.63, 32.85 ] } },
{ "type": "Feature", "properties": { "stid": "KSSO", "synop_id": 999999, "name": "SANSIMON", "state": "AZ", "country": "US", "alt": 1097 }, "geometry": { "type": "Point", "coordinates": [ -109.25, 32.27 ] } },
{ "type": "Feature", "properties": { "stid": "KSDL", "synop_id": 999999, "name": "SCOTTSDALE", "state": "AZ", "country": "US", "alt": 447 }, "geometry": { "type": "Point", "coordinates": [ -111.92, 33.61 ] } },
{ "type": "Feature", "properties": { "stid": "KSEZ", "synop_id": 999999, "name": "SEDONA", "state": "AZ", "country": "US", "alt": 1473 }, "geometry": { "type": "Point", "coordinates": [ -111.78, 34.85 ] } },
{ "type": "Feature", "properties": { "stid": "KSOW", "synop_id": 999999, "name": "SHOWLOWMUNICIP", "state": "AZ", "country": "US", "alt": 1954 }, "geometry": { "type": "Point", "coordinates": [ -110.0, 34.27 ] } },
{ "type": "Feature", "properties": { "stid": "KJTC", "synop_id": 999999, "name": "SPRINGERVILLE", "state": "AZ", "country": "US", "alt": 2149 }, "geometry": { "type": "Point", "coordinates": [ -109.32, 34.13 ] } },
{ "type": "Feature", "properties": { "stid": "KSJN", "synop_id": 999999, "name": "ST.JOHNS", "state": "AZ", "country": "US", "alt": 1745 }, "geometry": { "type": "Point", "coordinates": [ -109.38, 34.52 ] } },
{ "type": "Feature", "properties": { "stid": "KTBC", "synop_id": 999999, "name": "TUBACITY", "state": "AZ", "country": "US", "alt": 1538 }, "geometry": { "type": "Point", "coordinates": [ -111.27, 36.11 ] } },
{ "type": "Feature", "properties": { "stid": "KTWC", "synop_id": 722740, "name": "TUCSON\/WFO", "state": "AZ", "country": "US", "alt": 752 }, "geometry": { "type": "Point", "coordinates": [ -110.95, 32.22 ] } },
{ "type": "Feature", "properties": { "stid": "KRYN", "synop_id": 999999, "name": "TUCSON\/RYANFLD", "state": "AZ", "country": "US", "alt": 737 }, "geometry": { "type": "Point", "coordinates": [ -111.17, 32.15 ] } },
{ "type": "Feature", "properties": { "stid": "KCMR", "synop_id": 999999, "name": "WILLIAMSCLARK", "state": "AZ", "country": "US", "alt": 2036 }, "geometry": { "type": "Point", "coordinates": [ -112.2, 35.29 ] } },
{ "type": "Feature", "properties": { "stid": "KRQE", "synop_id": 999999, "name": "WINDOWROCK", "state": "AZ", "country": "US", "alt": 2055 }, "geometry": { "type": "Point", "coordinates": [ -109.07, 35.65 ] } },
{ "type": "Feature", "properties": { "stid": "KINW", "synop_id": 723740, "name": "WINSLOW", "state": "AZ", "country": "US", "alt": 1490 }, "geometry": { "type": "Point", "coordinates": [ -110.72, 35.03 ] } },
{ "type": "Feature", "properties": { "stid": "KYUX", "synop_id": 999999, "name": "YUMA\/88D", "state": "AZ", "country": "US", "alt": 53 }, "geometry": { "type": "Point", "coordinates": [ -114.65, 32.5 ] } },
{ "type": "Feature", "properties": { "stid": "KYUM", "synop_id": 722800, "name": "YUMAINTL", "state": "AZ", "country": "US", "alt": 63 }, "geometry": { "type": "Point", "coordinates": [ -114.58, 32.63 ] } },
{ "type": "Feature", "properties": { "stid": "KNYL", "synop_id": 699600, "name": "YUMAMCAS", "state": "AZ", "country": "US", "alt": 65 }, "geometry": { "type": "Point", "coordinates": [ -114.62, 32.63 ] } },
{ "type": "Feature", "properties": { "stid": "K1Y7", "synop_id": 740040, "name": "YUMAPRVGGROUN", "state": "AZ", "country": "US", "alt": 231 }, "geometry": { "type": "Point", "coordinates": [ -114.4, 32.5 ] } },
{ "type": "Feature", "properties": { "stid": "690310YU", "synop_id": 0, "name": "GROUNAZUS32", "state": "50", "country": "-11", "alt": 0 }, "geometry": { "type": "Point", "coordinates": [ 23.1, 4.4 ] } },
{ "type": "Feature", "properties": { "stid": "KBZA", "synop_id": 999999, "name": "YUMA(VOR)", "state": "AZ", "country": "US", "alt": 63 }, "geometry": { "type": "Point", "coordinates": [ -114.6, 32.77 ] } },
{ "type": "Feature", "properties": { "stid": "KGBN", "synop_id": 999999, "name": "GILABEND(AAF)", "state": "AZ", "country": "US", "alt": 262 }, "geometry": { "type": "Point", "coordinates": [ -112.72, 32.86 ] } },
{ "type": "Feature", "properties": { "stid": "K13A", "synop_id": 999999, "name": "NOGALES", "state": "AZ", "country": "US", "alt": 1198 }, "geometry": { "type": "Point", "coordinates": [ -110.85, 31.42 ] } },
{ "type": "Feature", "properties": { "stid": "K0E4", "synop_id": 999999, "name": "PAYSON", "state": "AZ", "country": "US", "alt": 1498 }, "geometry": { "type": "Point", "coordinates": [ -111.32, 34.22 ] } },
{ "type": "Feature", "properties": { "stid": "KE74", "synop_id": 999999, "name": "SAFFORD", "state": "AZ", "country": "US", "alt": 900 }, "geometry": { "type": "Point", "coordinates": [ -109.68, 32.82 ] } },
{ "type": "Feature", "properties": { "stid": "KE03", "synop_id": 999999, "name": "SHOWLOW", "state": "AZ", "country": "US", "alt": 1955 }, "geometry": { "type": "Point", "coordinates": [ -110.03, 34.25 ] } },
{ "type": "Feature", "properties": { "stid": "KT03", "synop_id": 999999, "name": "TUBACITY", "state": "AZ", "country": "US", "alt": 1400 }, "geometry": { "type": "Point", "coordinates": [ -111.38, 36.1 ] } },
{ "type": "Feature", "properties": { "stid": "KP34", "synop_id": 999999, "name": "WINDOWROCK", "state": "AZ", "country": "US", "alt": 2055 }, "geometry": { "type": "Point", "coordinates": [ -109.07, 35.65 ] } },
{ "type": "Feature", "properties": { "stid": "KNGZ", "synop_id": 745060, "name": "ALAMEDANAS", "state": "CA", "country": "US", "alt": 4 }, "geometry": { "type": "Point", "coordinates": [ -122.32, 37.77 ] } },
{ "type": "Feature", "properties": { "stid": "KAAT", "synop_id": 999999, "name": "ALTURAS", "state": "CA", "country": "US", "alt": 1331 }, "geometry": { "type": "Point", "coordinates": [ -120.57, 41.48 ] } },
{ "type": "Feature", "properties": { "stid": "KAPV", "synop_id": 999999, "name": "APPLEVALLEY", "state": "CA", "country": "US", "alt": 934 }, "geometry": { "type": "Point", "coordinates": [ -117.18, 34.57 ] } },
{ "type": "Feature", "properties": { "stid": "KACV", "synop_id": 999999, "name": "ARCATA\/EUREKA", "state": "CA", "country": "US", "alt": 67 }, "geometry": { "type": "Point", "coordinates": [ -124.1, 40.98 ] } },
{ "type": "Feature", "properties": { "stid": "KAUN", "synop_id": 999999, "name": "AUBURNMUNI", "state": "CA", "country": "US", "alt": 467 }, "geometry": { "type": "Point", "coordinates": [ -121.08, 38.95 ] } },
{ "type": "Feature", "properties": { "stid": "KAVX", "synop_id": 722920, "name": "AVALON", "state": "CA", "country": "US", "alt": 482 }, "geometry": { "type": "Point", "coordinates": [ -118.42, 33.4 ] } },
{ "type": "Feature", "properties": { "stid": "KBFL", "synop_id": 723840, "name": "BAKERSFIELD", "state": "CA", "country": "US", "alt": 151 }, "geometry": { "type": "Point", "coordinates": [ -119.05, 35.43 ] } },
{ "type": "Feature", "properties": { "stid": "KEHF", "synop_id": 999999, "name": "BAKERSFIELD(VOR)", "state": "CA", "country": "US", "alt": 151 }, "geometry": { "type": "Point", "coordinates": [ -119.1, 35.47 ] } },
{ "type": "Feature", "properties": { "stid": "KBAB", "synop_id": 999999, "name": "BEALEAFB\/MARYSV", "state": "CA", "country": "US", "alt": 34 }, "geometry": { "type": "Point", "coordinates": [ -121.42, 39.11 ] } },
{ "type": "Feature", "properties": { "stid": "KBBX", "synop_id": 999999, "name": "BEALE\/ORODAM", "state": "CA", "country": "US", "alt": 53 }, "geometry": { "type": "Point", "coordinates": [ -121.63, 39.5 ] } },
{ "type": "Feature", "properties": { "stid": "KBUO", "synop_id": 999999, "name": "BEAUMONT", "state": "CA", "country": "US", "alt": 692 }, "geometry": { "type": "Point", "coordinates": [ -116.97, 33.92 ] } },
{ "type": "Feature", "properties": { "stid": "KL35", "synop_id": 999999, "name": "BIGBEARCITY", "state": "CA", "country": "US", "alt": 2059 }, "geometry": { "type": "Point", "coordinates": [ -116.85, 34.27 ] } },
{ "type": "Feature", "properties": { "stid": "KBYS", "synop_id": 746110, "name": "BICYCLELAKE", "state": "CA", "country": "US", "alt": 716 }, "geometry": { "type": "Point", "coordinates": [ -116.62, 35.28 ] } },
{ "type": "Feature", "properties": { "stid": "KBIH", "synop_id": 724800, "name": "BISHOP", "state": "CA", "country": "US", "alt": 1253 }, "geometry": { "type": "Point", "coordinates": [ -118.35, 37.36 ] } },
{ "type": "Feature", "properties": { "stid": "KBLH", "synop_id": 999999, "name": "BLYTHE", "state": "CA", "country": "US", "alt": 119 }, "geometry": { "type": "Point", "coordinates": [ -114.72, 33.61 ] } },
{ "type": "Feature", "properties": { "stid": "KO57", "synop_id": 999999, "name": "BRIDGEPORT", "state": "CA", "country": "US", "alt": 1973 }, "geometry": { "type": "Point", "coordinates": [ -119.22, 38.27 ] } },
{ "type": "Feature", "properties": { "stid": "KBAN", "synop_id": 999999, "name": "BRIDGEPORT(MCMWT", "state": "CA", "country": "US", "alt": 2057 }, "geometry": { "type": "Point", "coordinates": [ -119.52, 38.35 ] } },
{ "type": "Feature", "properties": { "stid": "KBUR", "synop_id": 722880, "name": "BURBANK", "state": "CA", "country": "US", "alt": 217 }, "geometry": { "type": "Point", "coordinates": [ -118.37, 34.2 ] } },
{ "type": "Feature", "properties": { "stid": "KBNY", "synop_id": 999999, "name": "BURNEY", "state": "CA", "country": "US", "alt": 957 }, "geometry": { "type": "Point", "coordinates": [ -121.67, 40.86 ] } },
{ "type": "Feature", "properties": { "stid": "KCXL", "synop_id": 999999, "name": "CALEXICOINTL", "state": "CA", "country": "US", "alt": 1 }, "geometry": { "type": "Point", "coordinates": [ -115.5, 32.67 ] } },
{ "type": "Feature", "properties": { "stid": "KCMA", "synop_id": 999999, "name": "CAMARILLO", "state": "CA", "country": "US", "alt": 23 }, "geometry": { "type": "Point", "coordinates": [ -119.1, 34.22 ] } },
{ "type": "Feature", "properties": { "stid": "KNFG", "synop_id": 999999, "name": "CAMPPENDLETON", "state": "CA", "country": "US", "alt": 24 }, "geometry": { "type": "Point", "coordinates": [ -117.33, 33.28 ] } },
{ "type": "Feature", "properties": { "stid": "KSYL", "synop_id": 999999, "name": "CAMPROBERTS", "state": "CA", "country": "US", "alt": 220 }, "geometry": { "type": "Point", "coordinates": [ -120.7, 35.75 ] } },
{ "type": "Feature", "properties": { "stid": "KCZZ", "synop_id": 999999, "name": "CAMPO", "state": "CA", "country": "US", "alt": 807 }, "geometry": { "type": "Point", "coordinates": [ -116.47, 32.63 ] } },
{ "type": "Feature", "properties": { "stid": "KCRQ", "synop_id": 999999, "name": "CARLSBAD", "state": "CA", "country": "US", "alt": 99 }, "geometry": { "type": "Point", "coordinates": [ -117.28, 33.13 ] } },
{ "type": "Feature", "properties": { "stid": "KCIC", "synop_id": 724970, "name": "CHICOMUNICIPAL", "state": "CA", "country": "US", "alt": 73 }, "geometry": { "type": "Point", "coordinates": [ -121.83, 39.78 ] } },
{ "type": "Feature", "properties": { "stid": "KNID", "synop_id": 746120, "name": "CHINALAKE(NAF)", "state": "CA", "country": "US", "alt": 696 }, "geometry": { "type": "Point", "coordinates": [ -117.67, 35.67 ] } },
{ "type": "Feature", "properties": { "stid": "KCNO", "synop_id": 999999, "name": "CHINO", "state": "CA", "country": "US", "alt": 207 }, "geometry": { "type": "Point", "coordinates": [ -117.62, 33.97 ] } },
{ "type": "Feature", "properties": { "stid": "KO22", "synop_id": 999999, "name": "COLUMBIA", "state": "CA", "country": "US", "alt": 646 }, "geometry": { "type": "Point", "coordinates": [ -120.42, 38.03 ] } },
{ "type": "Feature", "properties": { "stid": "KCCR", "synop_id": 999999, "name": "CONCORD", "state": "CA", "country": "US", "alt": 11 }, "geometry": { "type": "Point", "coordinates": [ -122.05, 38.0 ] } },
{ "type": "Feature", "properties": { "stid": "KAJO", "synop_id": 999999, "name": "CORONAMUNI", "state": "CA", "country": "US", "alt": 163 }, "geometry": { "type": "Point", "coordinates": [ -117.6, 33.9 ] } },
{ "type": "Feature", "properties": { "stid": "KCEC", "synop_id": 999999, "name": "CRESCENTCITY", "state": "CA", "country": "US", "alt": 17 }, "geometry": { "type": "Point", "coordinates": [ -124.22, 41.77 ] } },
{ "type": "Feature", "properties": { "stid": "KDAG", "synop_id": 999999, "name": "DAGGETT", "state": "CA", "country": "US", "alt": 587 }, "geometry": { "type": "Point", "coordinates": [ -116.78, 34.85 ] } },
{ "type": "Feature", "properties": { "stid": "KEDU", "synop_id": 999999, "name": "DAVIS", "state": "CA", "country": "US", "alt": 21 }, "geometry": { "type": "Point", "coordinates": [ -121.78, 38.53 ] } },
{ "type": "Feature", "properties": { "stid": "KEDW", "synop_id": 723810, "name": "EDWARDSAFB", "state": "CA", "country": "US", "alt": 702 }, "geometry": { "type": "Point", "coordinates": [ -117.87, 34.88 ] } },
{ "type": "Feature", "properties": { "stid": "KEYX", "synop_id": 999999, "name": "EDWARDSAFB\/88D", "state": "CA", "country": "US", "alt": 840 }, "geometry": { "type": "Point", "coordinates": [ -117.57, 35.1 ] } },
{ "type": "Feature", "properties": { "stid": "K9L2", "synop_id": 999999, "name": "EDWARDSN-AUX", "state": "CA", "country": "US", "alt": 701 }, "geometry": { "type": "Point", "coordinates": [ -117.87, 34.97 ] } },
{ "type": "Feature", "properties": { "stid": "KNJK", "synop_id": 722810, "name": "ELCENTRONAF", "state": "CA", "country": "US", "alt": -13 }, "geometry": { "type": "Point", "coordinates": [ -115.67, 32.82 ] } },
{ "type": "Feature", "properties": { "stid": "KEMT", "synop_id": 747040, "name": "ELMONTE", "state": "CA", "country": "US", "alt": 90 }, "geometry": { "type": "Point", "coordinates": [ -118.02, 34.07 ] } },
{ "type": "Feature", "properties": { "stid": "KBLU", "synop_id": 999999, "name": "EMIGRANTGAP", "state": "CA", "country": "US", "alt": 1609 }, "geometry": { "type": "Point", "coordinates": [ -120.7, 39.28 ] } },
{ "type": "Feature", "properties": { "stid": "KEKA", "synop_id": 725940, "name": "EUREKA\/MURRAY", "state": "CA", "country": "US", "alt": 18 }, "geometry": { "type": "Point", "coordinates": [ -124.17, 40.79 ] } },
{ "type": "Feature", "properties": { "stid": "KL18", "synop_id": 999999, "name": "FALLBROOK", "state": "CA", "country": "US", "alt": 216 }, "geometry": { "type": "Point", "coordinates": [ -117.25, 33.35 ] } },
{ "type": "Feature", "properties": { "stid": "KFOT", "synop_id": 999999, "name": "FORTUNA", "state": "CA", "country": "US", "alt": 120 }, "geometry": { "type": "Point", "coordinates": [ -124.13, 40.54 ] } },
{ "type": "Feature", "properties": { "stid": "KFAT", "synop_id": 723890, "name": "FRESNO", "state": "CA", "country": "US", "alt": 104 }, "geometry": { "type": "Point", "coordinates": [ -119.72, 36.78 ] } },
{ "type": "Feature", "properties": { "stid": "KCZQ", "synop_id": 999999, "name": "FRESNO(VOR)", "state": "CA", "country": "US", "alt": 104 }, "geometry": { "type": "Point", "coordinates": [ -119.82, 36.88 ] } },
{ "type": "Feature", "properties": { "stid": "KFCH", "synop_id": 999999, "name": "FRESNOCHANDLER", "state": "CA", "country": "US", "alt": 85 }, "geometry": { "type": "Point", "coordinates": [ -119.82, 36.72 ] } },
{ "type": "Feature", "properties": { "stid": "KFUL", "synop_id": 999999, "name": "FULLERTON", "state": "CA", "country": "US", "alt": 35 }, "geometry": { "type": "Point", "coordinates": [ -117.98, 33.86 ] } },
{ "type": "Feature", "properties": { "stid": "KGOO", "synop_id": 999999, "name": "GRASSVALLEY", "state": "CA", "country": "US", "alt": 962 }, "geometry": { "type": "Point", "coordinates": [ -121.0, 39.22 ] } },
{ "type": "Feature", "properties": { "stid": "KHAF", "synop_id": 999999, "name": "HALFMOONBAY", "state": "CA", "country": "US", "alt": 21 }, "geometry": { "type": "Point", "coordinates": [ -122.5, 37.52 ] } },
{ "type": "Feature", "properties": { "stid": "KHJO", "synop_id": 999999, "name": "HANFORD", "state": "CA", "country": "US", "alt": 74 }, "geometry": { "type": "Point", "coordinates": [ -119.62, 36.32 ] } },
{ "type": "Feature", "properties": { "stid": "KHNX", "synop_id": 999999, "name": "HANFORD\/SANJOAQ", "state": "CA", "country": "US", "alt": 74 }, "geometry": { "type": "Point", "coordinates": [ -119.63, 36.32 ] } },
{ "type": "Feature", "properties": { "stid": "KO18", "synop_id": 999999, "name": "HANFORD", "state": "CA", "country": "US", "alt": 74 }, "geometry": { "type": "Point", "coordinates": [ -119.63, 36.32 ] } },
{ "type": "Feature", "properties": { "stid": "KHHR", "synop_id": 999999, "name": "HAWTHORNE", "state": "CA", "country": "US", "alt": 18 }, "geometry": { "type": "Point", "coordinates": [ -118.33, 33.92 ] } },
{ "type": "Feature", "properties": { "stid": "KHWD", "synop_id": 999999, "name": "HAYWARD", "state": "CA", "country": "US", "alt": 21 }, "geometry": { "type": "Point", "coordinates": [ -122.12, 37.67 ] } },
{ "type": "Feature", "properties": { "stid": "KHES", "synop_id": 999999, "name": "HEALDSBURG", "state": "CA", "country": "US", "alt": 85 }, "geometry": { "type": "Point", "coordinates": [ -122.9, 38.65 ] } },
{ "type": "Feature", "properties": { "stid": "KHEC", "synop_id": 999999, "name": "HECTOR(VOR)", "state": "CA", "country": "US", "alt": 617 }, "geometry": { "type": "Point", "coordinates": [ -116.47, 34.79 ] } },
{ "type": "Feature", "properties": { "stid": "KCVH", "synop_id": 999999, "name": "HOLLISTERMUNI", "state": "CA", "country": "US", "alt": 70 }, "geometry": { "type": "Point", "coordinates": [ -121.42, 36.9 ] } },
{ "type": "Feature", "properties": { "stid": "KBHX", "synop_id": 999999, "name": "HUMBOLDTCTY\/88D", "state": "CA", "country": "US", "alt": 732 }, "geometry": { "type": "Point", "coordinates": [ -124.3, 40.5 ] } },
{ "type": "Feature", "properties": { "stid": "KHGT", "synop_id": 690020, "name": "HUNTERLIGGET", "state": "CA", "country": "US", "alt": 310 }, "geometry": { "type": "Point", "coordinates": [ -121.22, 36.0 ] } },
{ "type": "Feature", "properties": { "stid": "KIPL", "synop_id": 999999, "name": "IMPERIAL", "state": "CA", "country": "US", "alt": -17 }, "geometry": { "type": "Point", "coordinates": [ -115.58, 32.83 ] } },
{ "type": "Feature", "properties": { "stid": "KNRS", "synop_id": 999999, "name": "IMPERIALBEACH", "state": "CA", "country": "US", "alt": 7 }, "geometry": { "type": "Point", "coordinates": [ -117.12, 32.57 ] } },
{ "type": "Feature", "properties": { "stid": "KIYK", "synop_id": 999999, "name": "INYOKERN", "state": "CA", "country": "US", "alt": 749 }, "geometry": { "type": "Point", "coordinates": [ -117.82, 35.67 ] } },
{ "type": "Feature", "properties": { "stid": "KPOC", "synop_id": 999999, "name": "LAVERNE\/BRACKET", "state": "CA", "country": "US", "alt": 308 }, "geometry": { "type": "Point", "coordinates": [ -117.77, 34.1 ] } },
{ "type": "Feature", "properties": { "stid": "KWJF", "synop_id": 999999, "name": "LANCASTER\/FOX", "state": "CA", "country": "US", "alt": 715 }, "geometry": { "type": "Point", "coordinates": [ -118.22, 34.72 ] } },
{ "type": "Feature", "properties": { "stid": "KNLC", "synop_id": 747020, "name": "LEMOORENAS\/REEV", "state": "CA", "country": "US", "alt": 72 }, "geometry": { "type": "Point", "coordinates": [ -119.95, 36.32 ] } },
{ "type": "Feature", "properties": { "stid": "KLHM", "synop_id": 999999, "name": "LINCOLN", "state": "CA", "country": "US", "alt": 37 }, "geometry": { "type": "Point", "coordinates": [ -121.35, 38.92 ] } },
{ "type": "Feature", "properties": { "stid": "KLLR", "synop_id": 999999, "name": "LITTLERIVER", "state": "CA", "country": "US", "alt": 175 }, "geometry": { "type": "Point", "coordinates": [ -123.75, 39.27 ] } },
{ "type": "Feature", "properties": { "stid": "KLVK", "synop_id": 999999, "name": "LIVERMORE", "state": "CA", "country": "US", "alt": 117 }, "geometry": { "type": "Point", "coordinates": [ -121.82, 37.7 ] } },
{ "type": "Feature", "properties": { "stid": "KLPC", "synop_id": 746060, "name": "LOMPOC", "state": "CA", "country": "US", "alt": 27 }, "geometry": { "type": "Point", "coordinates": [ -120.47, 34.67 ] } },
{ "type": "Feature", "properties": { "stid": "KLGB", "synop_id": 722970, "name": "LONGBEACH", "state": "CA", "country": "US", "alt": 10 }, "geometry": { "type": "Point", "coordinates": [ -118.15, 33.82 ] } },
{ "type": "Feature", "properties": { "stid": "KSLI", "synop_id": 999999, "name": "LOSALAMITOSAAF", "state": "CA", "country": "US", "alt": 11 }, "geometry": { "type": "Point", "coordinates": [ -118.03, 33.77 ] } },
{ "type": "Feature", "properties": { "stid": "KLAX", "synop_id": 722950, "name": "LOSANGELES", "state": "CA", "country": "US", "alt": 46 }, "geometry": { "type": "Point", "coordinates": [ -118.38, 33.93 ] } },
{ "type": "Feature", "properties": { "stid": "KLOX", "synop_id": 999999, "name": "LOSANGELES\/OXNA", "state": "CA", "country": "US", "alt": 20 }, "geometry": { "type": "Point", "coordinates": [ -119.2, 34.2 ] } },
{ "type": "Feature", "properties": { "stid": "KZLA", "synop_id": 999999, "name": "LOSANGELS\/ARTCC", "state": "CA", "country": "US", "alt": 819 }, "geometry": { "type": "Point", "coordinates": [ -118.08, 34.63 ] } },
{ "type": "Feature", "properties": { "stid": "KCQT", "synop_id": 999999, "name": "LOSANGELES", "state": "CA", "country": "US", "alt": 56 }, "geometry": { "type": "Point", "coordinates": [ -118.28, 34.02 ] } },
{ "type": "Feature", "properties": { "stid": "KWHP", "synop_id": 999999, "name": "LA\/WHITEMAN", "state": "CA", "country": "US", "alt": 306 }, "geometry": { "type": "Point", "coordinates": [ -118.42, 34.25 ] } },
{ "type": "Feature", "properties": { "stid": "KMAE", "synop_id": 999999, "name": "MADERA", "state": "CA", "country": "US", "alt": 77 }, "geometry": { "type": "Point", "coordinates": [ -120.12, 36.97 ] } },
{ "type": "Feature", "properties": { "stid": "KMMH", "synop_id": 999999, "name": "MAMMOTH\/JUNELAK", "state": "CA", "country": "US", "alt": 2173 }, "geometry": { "type": "Point", "coordinates": [ -118.82, 37.61 ] } },
{ "type": "Feature", "properties": { "stid": "KMYV", "synop_id": 999999, "name": "MARYSVILLE", "state": "CA", "country": "US", "alt": 21 }, "geometry": { "type": "Point", "coordinates": [ -121.57, 39.1 ] } },
{ "type": "Feature", "properties": { "stid": "KMHR", "synop_id": 999999, "name": "MATHERFIELD", "state": "CA", "country": "US", "alt": 29 }, "geometry": { "type": "Point", "coordinates": [ -121.28, 38.53 ] } },
{ "type": "Feature", "properties": { "stid": "KMCC", "synop_id": 999999, "name": "MCCLELLANAFB", "state": "CA", "country": "US", "alt": 23 }, "geometry": { "type": "Point", "coordinates": [ -121.4, 38.67 ] } },
{ "type": "Feature", "properties": { "stid": "KMCE", "synop_id": 999999, "name": "MERCED", "state": "CA", "country": "US", "alt": 47 }, "geometry": { "type": "Point", "coordinates": [ -120.5, 37.28 ] } },
{ "type": "Feature", "properties": { "stid": "KMER", "synop_id": 724810, "name": "MERCED\/CASTLEAF", "state": "CA", "country": "US", "alt": 57 }, "geometry": { "type": "Point", "coordinates": [ -120.57, 37.38 ] } },
{ "type": "Feature", "properties": { "stid": "KNKX", "synop_id": 722930, "name": "MIRAMARNAS\/SAN", "state": "CA", "country": "US", "alt": 146 }, "geometry": { "type": "Point", "coordinates": [ -117.13, 32.86 ] } },
{ "type": "Feature", "properties": { "stid": "KMZB", "synop_id": 999999, "name": "MISSIONBAYVOR", "state": "CA", "country": "US", "alt": 12 }, "geometry": { "type": "Point", "coordinates": [ -117.23, 32.78 ] } },
{ "type": "Feature", "properties": { "stid": "KMOD", "synop_id": 999999, "name": "MODESTO", "state": "CA", "country": "US", "alt": 29 }, "geometry": { "type": "Point", "coordinates": [ -120.95, 37.61 ] } },
{ "type": "Feature", "properties": { "stid": "KNUQ", "synop_id": 745090, "name": "MOFFETTNAS\/MTN", "state": "CA", "country": "US", "alt": 12 }, "geometry": { "type": "Point", "coordinates": [ -122.05, 37.4 ] } },
{ "type": "Feature", "properties": { "stid": "KMHV", "synop_id": 999999, "name": "MOJAVE", "state": "CA", "country": "US", "alt": 849 }, "geometry": { "type": "Point", "coordinates": [ -118.15, 35.07 ] } },
{ "type": "Feature", "properties": { "stid": "KSIY", "synop_id": 999999, "name": "MONTAGUE\/SISKIYO", "state": "CA", "country": "US", "alt": 807 }, "geometry": { "type": "Point", "coordinates": [ -122.47, 41.77 ] } },
{ "type": "Feature", "properties": { "stid": "KMRY", "synop_id": 999999, "name": "MONTEREY", "state": "CA", "country": "US", "alt": 66 }, "geometry": { "type": "Point", "coordinates": [ -121.85, 36.58 ] } },
{ "type": "Feature", "properties": { "stid": "KMHS", "synop_id": 725950, "name": "MOUNTSHASTA", "state": "CA", "country": "US", "alt": 1078 }, "geometry": { "type": "Point", "coordinates": [ -122.32, 41.32 ] } },
{ "type": "Feature", "properties": { "stid": "KMWS", "synop_id": 722890, "name": "MOUNTWILSON", "state": "CA", "country": "US", "alt": 1739 }, "geometry": { "type": "Point", "coordinates": [ -118.05, 34.22 ] } },
{ "type": "Feature", "properties": { "stid": "KF70", "synop_id": 999999, "name": "MURRIETA\/TEMECUL", "state": "CA", "country": "US", "alt": 412 }, "geometry": { "type": "Point", "coordinates": [ -117.13, 33.57 ] } },
{ "type": "Feature", "properties": { "stid": "KAPC", "synop_id": 999999, "name": "NAPA", "state": "CA", "country": "US", "alt": 13 }, "geometry": { "type": "Point", "coordinates": [ -122.28, 38.2 ] } },
{ "type": "Feature", "properties": { "stid": "KEED", "synop_id": 723800, "name": "NEEDLES", "state": "CA", "country": "US", "alt": 302 }, "geometry": { "type": "Point", "coordinates": [ -114.62, 34.77 ] } },
{ "type": "Feature", "properties": { "stid": "K3A6", "synop_id": 999999, "name": "NEWHALL", "state": "CA", "country": "US", "alt": 427 }, "geometry": { "type": "Point", "coordinates": [ -118.57, 34.36 ] } },
{ "type": "Feature", "properties": { "stid": "KNZY", "synop_id": 999999, "name": "NORTHISLANDNAS", "state": "CA", "country": "US", "alt": 8 }, "geometry": { "type": "Point", "coordinates": [ -117.22, 32.7 ] } },
{ "type": "Feature", "properties": { "stid": "KDVO", "synop_id": 999999, "name": "NOVATO\/GNOSSFLD", "state": "CA", "country": "US", "alt": 1 }, "geometry": { "type": "Point", "coordinates": [ -122.55, 38.15 ] } },
{ "type": "Feature", "properties": { "stid": "KOAK", "synop_id": 724930, "name": "OAKLAND", "state": "CA", "country": "US", "alt": 26 }, "geometry": { "type": "Point", "coordinates": [ -122.23, 37.72 ] } },
{ "type": "Feature", "properties": { "stid": "KZOA", "synop_id": 999999, "name": "OAKLAND\/ARTCC", "state": "CA", "country": "US", "alt": 11 }, "geometry": { "type": "Point", "coordinates": [ -122.02, 37.54 ] } },
{ "type": "Feature", "properties": { "stid": "KOKB", "synop_id": 999999, "name": "OCEANSIDE", "state": "CA", "country": "US", "alt": 8 }, "geometry": { "type": "Point", "coordinates": [ -117.35, 33.22 ] } },
{ "type": "Feature", "properties": { "stid": "KNXF", "synop_id": 999999, "name": "OCEANSIDE\/RED-B", "state": "CA", "country": "US", "alt": 27 }, "geometry": { "type": "Point", "coordinates": [ -117.45, 33.28 ] } },
{ "type": "Feature", "properties": { "stid": "KONT", "synop_id": 999999, "name": "ONTARIO", "state": "CA", "country": "US", "alt": 274 }, "geometry": { "type": "Point", "coordinates": [ -117.58, 34.04 ] } },
{ "type": "Feature", "properties": { "stid": "KSOX", "synop_id": 999999, "name": "ORANGECTY\/88D", "state": "CA", "country": "US", "alt": 923 }, "geometry": { "type": "Point", "coordinates": [ -117.63, 33.82 ] } },
{ "type": "Feature", "properties": { "stid": "KVBX", "synop_id": 999999, "name": "ORCUTTOIL\/VBG", "state": "CA", "country": "US", "alt": 373 }, "geometry": { "type": "Point", "coordinates": [ -120.4, 34.83 ] } },
{ "type": "Feature", "properties": { "stid": "KOVE", "synop_id": 999999, "name": "OROVILLE", "state": "CA", "country": "US", "alt": 58 }, "geometry": { "type": "Point", "coordinates": [ -121.62, 39.5 ] } },
{ "type": "Feature", "properties": { "stid": "KOXR", "synop_id": 999999, "name": "OXNARD", "state": "CA", "country": "US", "alt": 20 }, "geometry": { "type": "Point", "coordinates": [ -119.2, 34.2 ] } },
{ "type": "Feature", "properties": { "stid": "KPSP", "synop_id": 999999, "name": "PALMSPRINGS", "state": "CA", "country": "US", "alt": 135 }, "geometry": { "type": "Point", "coordinates": [ -116.5, 33.82 ] } },
{ "type": "Feature", "properties": { "stid": "KPMD", "synop_id": 723820, "name": "PALMDALE", "state": "CA", "country": "US", "alt": 780 }, "geometry": { "type": "Point", "coordinates": [ -118.08, 34.63 ] } },
{ "type": "Feature", "properties": { "stid": "KGXA", "synop_id": 999999, "name": "PALMDALE", "state": "CA", "country": "US", "alt": 923 }, "geometry": { "type": "Point", "coordinates": [ -117.67, 34.57 ] } },